번호,구분,화장실명,소재지도로명주소,소재지지번주소,남녀공용화장실여부,남성용-대변기수,남성용-소변기수,남성용-장애인용대변기수,남성용-장애인용소변기수,남성용-어린이용대변기수,남성용-어린이용소변기수,여성용-대변기수,여성용-장애인용대변기수,여성용-어린이용대변기수,관리기관명,전화번호,개방시간,설치연월,위도,경도,화장실소유구분,화장실설치장소유형,오물처리방식,비상벨설치유형,화장실입구CCTV설치유무,기저귀교환대장소,리모델링연월,데이터기준일자
1,공중화장실,월광수변공원2,대구광역시 달서구 월곡로 5,,N,1,1,0,0,0,0,0,0,0,달서구청 공원녹지과,,09:00~18:00,,35.79880747,128.5482868,지방자치단체,공공용시설,수세식,없음,N,없음,,2020-08-31
2,공중화장실,보성은하상가,"대구광역시 달서구 월곡로 320 (상인동, 보성은하아파트)",,N,2,3,0,0,0,0,2,0,0,달서구청 경제지원과,,09:00~18:00,,35.82358126,128.5342992,민간,상업시설,수세식,없음,N,없음,,2020-08-31
3,개방화장실,월곡빌딩,대구광역시 달서구 월곡로 266 (상인동),,N,1,2,0,0,0,0,2,0,0,달서구청 환경보호과,,09:00~18:00,,35.81812518,128.5389873,민간,기타,수세식,없음,N,없음,,2020-08-31
4,공중화장실,상인프라자,대구광역시 달서구 월곡로 260 (상인동),,N,2,2,0,0,0,0,0,1,0,달서구청 환경보호과,,09:00~18:00,,35.81778207,128.5393215,민간,기타,수세식,없음,N,없음,,2020-08-31
5,공중화장실,동양주유소,대구광역시 달서구 월곡로 149 (상인동),,Y,0,0,0,0,0,0,0,0,0,달서구청 환경보호과,,09:00~18:00,,35.80985743,128.5464702,민간,주유소·충전소,수세식,없음,N,없음,,2020-08-31
6,공중화장실,명종주유소,대구광역시 달서구 월곡로 134-1 (상인동),,Y,0,0,0,0,0,0,0,0,0,달서구청 환경보호과,,09:00~18:00,,35.80911167,128.5481196,민간,주유소·충전소,수세식,없음,N,없음,,2020-08-31
7,공중화장실,더진솔한주유소,대구광역시 달서구 용산로 8 (본리동),,N,0,0,0,0,0,0,0,0,0,달서구청 환경보호과,,09:00~18:00,,35.8380504,128.5308947,민간,주유소·충전소,수세식,없음,N,없음,,2020-08-31
8,개방화장실,대구용산동우체국,"대구광역시 달서구 용산로 214 (용산동, 신용산우체국)",,N,1,2,0,0,0,0,1,0,0,대구용산동우체국,,09:00~18:00,,35.85667165,128.5309118,국가,공공용시설,수세식,없음,N,없음,,2020-08-31
9,개방화장실,용산1동 행정복지센터 3층,"대구광역시 달서구 용산로 212-7 (용산동, 용산1동행정복지센터)",,N,2,3,0,0,0,0,5,1,0,용산1동 행정복지센터,,09:00~18:00,,35.85666404,128.531226,지방자치단체,공공용시설,수세식,없음,N,없음,,2020-08-31
10,개방화장실,도원도서관,"대구광역시 달서구 한실로 113 (도원동, 도원도서관)",,N,3,6,0,0,0,0,6,1,1,달서구청 도서관과,,09:00~20:00,,35.80679505,128.5390474,지방자치단체,공공용시설,수세식,없음,Y,없음,,2020-08-31
11,공중화장실,사랑공원,대구광역시 달서구 학산로7길 27,,N,1,1,0,0,0,0,2,0,0,월성2동 행정복지센터,,09:00~18:00,,35.83033022,128.5311049,지방자치단체,공공용시설,수세식,여자화장실,N,없음,,2020-08-31
12,개방화장실,월성종합복지관 3층,"대구광역시 달서구 학산로7길 39 (월성동, 월성주공3단지아파트)",,N,0,0,0,0,0,0,1,0,0,월성종합복지관,,09:00~22:00,,35.83157511,128.5298717,지방자치단체,공공용시설,수세식,없음,N,없음,,2020-08-31
13,개방화장실,월성종합복지관 2층,"대구광역시 달서구 학산로7길 39 (월성동, 월성주공3단지아파트)",,N,2,2,0,0,0,0,0,0,1,월성종합복지관,,09:00~22:00,,35.83157511,128.5298717,지방자치단체,공공용시설,수세식,없음,N,없음,,2020-08-31
14,개방화장실,월성종합복지관 1층,"대구광역시 달서구 학산로7길 39 (월성동, 월성주공3단지아파트)",,N,1,2,0,0,0,0,2,1,0,월성종합복지관,,09:00~22:00,,35.83157511,128.5298717,지방자치단체,공공용시설,수세식,,Y,없음,,2020-08-31
15,개방화장실,월성119안전센터,"대구광역시 달서구 학산로 75 (월성동, 달서소방서)",,N,1,2,0,0,0,0,1,0,0,월성119안전센터,,09:00~18:00,,35.83105896,128.5347309,국가,공공용시설,수세식,없음,N,없음,,2020-08-31
16,개방화장실,대구달서우체국,"대구광역시 달서구 학산로 65 (월성동, 대구달서우체국)",,N,5,14,0,0,0,0,5,0,0,대구달서우체국 지원과,,09:00~18:00,,35.83067799,128.5343606,국가,공공용시설,수세식,없음,N,없음,,2020-08-31
17,개방화장실,달서구청 8층,"대구광역시 달서구 학산로 45 (월성동, 달서구청)",,N,2,5,0,0,0,0,2,0,0,달서구청 총무과,,09:00~18:00,,35.82991524,128.5328365,지방자치단체,공공용시설,수세식,없음,N,없음,,2020-08-31
18,개방화장실,달서구청 7층,"대구광역시 달서구 학산로 45 (월성동, 달서구청)",,N,2,5,0,0,0,0,2,0,0,달서구청 총무과,,09:00~18:00,,35.82991524,128.5328365,지방자치단체,공공용시설,수세식,없음,N,없음,,2020-08-31
19,개방화장실,달서구청 6층,"대구광역시 달서구 학산로 45 (월성동, 달서구청)",,N,2,5,0,0,0,0,2,0,0,달서구청 총무과,,09:00~18:00,,35.82991524,128.5328365,지방자치단체,공공용시설,수세식,없음,N,없음,,2020-08-31
20,개방화장실,달서구청 5층,"대구광역시 달서구 학산로 45 (월성동, 달서구청)",,N,2,5,0,0,0,0,2,0,0,달서구청 총무과,,09:00~18:00,,35.82991524,128.5328365,지방자치단체,공공용시설,수세식,없음,N,없음,,2020-08-31
21,개방화장실,달서구청 4층,"대구광역시 달서구 학산로 45 (월성동, 달서구청)",,N,2,5,0,0,0,0,2,0,0,달서구청 총무과,,09:00~18:00,,35.82991524,128.5328365,지방자치단체,공공용시설,수세식,없음,N,없음,,2020-08-31
22,개방화장실,달서구청 3층,"대구광역시 달서구 학산로 45 (월성동, 달서구청)",,N,2,5,0,0,0,0,3,0,0,달서구청 총무과,,09:00~18:00,,35.82991524,128.5328365,지방자치단체,공공용시설,수세식,없음,N,없음,,2020-08-31
23,개방화장실,달서구청 2층,"대구광역시 달서구 학산로 45 (월성동, 달서구청)",,N,2,5,0,0,0,0,4,1,0,달서구청 총무과,,09:00~18:00,,35.82991524,128.5328365,지방자치단체,공공용시설,수세식,없음,Y,없음,,2020-08-31
24,개방화장실,달서구청 1층,"대구광역시 달서구 학산로 45 (월성동, 달서구청)",,N,3,5,0,0,0,0,4,1,1,달서구청 총무과,,09:00~18:00,,35.82991524,128.5328365,지방자치단체,공공용시설,수세식,없음,Y,여자화장실,,2020-08-31
25,공중화장실,광수공원,대구광역시 달서구 학산로 30,,N,1,1,0,0,0,0,2,0,0,월성1동 행정복지센터,,09:00~18:00,,35.82894411,128.5338005,지방자치단체,공공용시설,수세식,여자화장실,N,없음,,2020-08-31
26,개방화장실,송현지구대,"대구광역시 달서구 학산로 184 (송현동, 송현지구대)",,N,1,2,0,0,0,0,1,0,0,달서경찰서 송현지구대,,00:00~23:50,,35.83361037,128.5465902,공공기관,공공용시설,수세식,없음,N,없음,,2020-08-31
27,공중화장실,월성청구시장,대구광역시 달서구 학산로 17,,N,2,4,0,0,0,0,3,0,0,달서구청 경제지원과,,09:00~18:00,,35.82752943,128.5311042,민간,상업시설,수세식,없음,N,없음,,2020-08-31
28,개방화장실,달서구노인종합복지관 별관,"대구광역시 달서구 학산로 140 (본동, 달서구노인종합복지관)",,N,2,2,0,0,0,0,2,1,0,달서구노인종합복지관,,08:00~18:00,,35.83328619,128.5418032,지방자치단체,공공용시설,수세식,없음,N,없음,,2020-08-31
29,개방화장실,달서구노인종합복지관 본관,"대구광역시 달서구 학산로 140 (본동, 달서구노인종합복지관)",,N,3,4,0,0,0,0,5,1,0,달서구노인종합복지관,,08:00~18:00,,35.83328619,128.5418032,지방자치단체,공공용시설,수세식,없음,N,없음,,2020-08-31
30,개방화장실,올림픽기념국민생활관 3층,대구광역시 달서구 학산로 130,,N,3,4,0,0,0,0,3,1,0,올림픽기념국민생활관,,06:00~21:00,,35.83314358,128.5405566,지방자치단체,관광·체육시설,수세식,여자화장실,N,여자화장실,,2020-08-31
31,개방화장실,올림픽기념국민생활관 1층,대구광역시 달서구 학산로 130,,N,3,4,0,0,0,0,3,1,0,올림픽기념국민생활관,,06:00~21:00,,35.83314358,128.5405566,지방자치단체,관광·체육시설,수세식,여자화장실,N,여자화장실,,2020-08-31
32,개방화장실,올림픽기념국민생활관 2층,대구광역시 달서구 학산로 130,,N,3,4,0,0,0,0,3,1,0,올림픽기념국민생활관,,06:00~21:00,,35.83314358,128.5405566,지방자치단체,관광·체육시설,수세식,여자화장실,N,여자화장실,,2020-08-31
33,개방화장실,허병원,대구광역시 달서구 학산로 121 (본동),,N,2,0,0,0,0,0,2,1,0,달서구청 환경보호과,,09:00~18:00,,35.83364199,128.5396367,민간,기타,수세식,없음,N,없음,,2020-08-31
34,공중화장실,학산공원3,대구광역시 달서구 학산로 104-11,,N,0,0,0,0,0,0,4,0,0,달서구청 공원녹지과,,09:00~18:00,,35.83203305,128.5388929,지방자치단체,공공용시설,수세식,여자화장실,N,없음,,2020-08-31
35,공중화장실,학산공원2,대구광역시 달서구 학산로 104-11,,N,3,5,0,0,0,0,6,1,0,달서구청 공원녹지과,,09:00~18:00,,35.83203305,128.5388929,지방자치단체,공공용시설,수세식,여자화장실,N,없음,,2020-08-31
36,공중화장실,용산주유소,대구광역시 달서구 평리로 78 (용산동),,N,0,2,0,0,0,0,0,0,0,달서구청 환경보호과,,09:00~18:00,,35.85835081,128.5329367,민간,주유소·충전소,수세식,없음,N,없음,,2020-08-31
37,개방화장실,달서구자원봉사센터 4층,"대구광역시 달서구 진천로9길 33 (진천동, 진천동행정복지센터)",,N,1,2,0,0,0,0,3,0,0,진천동행정복지센터,,09:00~18:00,,35.8122214,128.5228091,지방자치단체,공공용시설,수세식,없음,Y,없음,,2020-08-31
38,개방화장실,진천동행정복지센터 3층,"대구광역시 달서구 진천로9길 33 (진천동, 진천동행정복지센터)",,N,1,2,0,0,0,0,3,0,0,진천동행정복지센터,,09:00~18:00,,35.8122214,128.5228091,지방자치단체,공공용시설,수세식,없음,Y,없음,,2020-08-31
39,개방화장실,진천동행정복지센터 2층,"대구광역시 달서구 진천로9길 33 (진천동, 진천동행정복지센터)",,N,1,2,0,0,0,0,3,0,0,진천동행정복지센터,,09:00~18:00,,35.8122214,128.5228091,지방자치단체,공공용시설,수세식,없음,Y,없음,,2020-08-31
40,개방화장실,용산1동 행정복지센터 2층,"대구광역시 달서구 용산로 212-7 (용산동, 용산1동행정복지센터)",,N,2,3,0,0,0,0,5,1,0,용산1동 행정복지센터,,09:00~18:00,,35.85666404,128.531226,지방자치단체,공공용시설,수세식,없음,N,없음,,2020-08-31
41,개방화장실,진천동행정복지센터 1층 장애인,"대구광역시 달서구 진천로9길 33 (진천동, 진천동행정복지센터)",,N,1,0,0,0,0,0,1,1,0,진천동행정복지센터,,09:00~18:00,,35.8122214,128.5228091,지방자치단체,공공용시설,수세식,없음,Y,없음,,2020-08-31
42,개방화장실,용산1동 행정복지센터 1층,"대구광역시 달서구 용산로 212-7 (용산동, 용산1동행정복지센터)",,N,2,3,0,0,0,0,5,1,0,용산1동 행정복지센터,,09:00~18:00,,35.85666404,128.531226,지방자치단체,공공용시설,수세식,,N,없음,,2020-08-31
43,개방화장실,죽전지구대,"대구광역시 달서구 용산로 212 (용산동, 죽전지구대)",,N,1,1,0,0,0,0,1,0,0,죽전파출소,,00:00~23:50,,35.85653043,128.5309622,국가,공공용시설,수세식,없음,N,없음,,2020-08-31
44,개방화장실,대구학생문화센터,"대구광역시 달서구 용산로 181 (용산동, 대구학생문화센터)",,N,16,22,0,0,0,0,17,1,0,학생문화센터 총무부,,09:00~18:00,,35.85302346,128.5295222,지방자치단체,공공용시설,수세식,없음,N,없음,,2020-08-31
45,개방화장실,그랜드M타워,"대구광역시 달서구 용산로 141 (용산동, 그랜드M 타워)",,N,1,3,0,0,0,0,3,1,0,달서구청 환경보호과,,09:00~18:00,,35.85012847,128.5301263,민간,기타,수세식,없음,N,없음,,2020-08-31
46,개방화장실,죽전동행정복지센터 2층,"대구광역시 달서구 와룡로54길 28 (죽전동, 죽전동행정복지센터)",,Y,0,0,0,0,0,0,0,1,0,죽전동행정복지센터,,09:00~18:00,,35.85579022,128.5398036,지방자치단체,공공용시설,수세식,없음,N,없음,,2020-08-31
47,개방화장실,죽전동행정복지센터 1층,"대구광역시 달서구 와룡로54길 28 (죽전동, 죽전동행정복지센터)",,N,1,0,0,0,0,0,1,1,0,죽전동행정복지센터,,09:00~18:00,,35.85579022,128.5398036,지방자치단체,공공용시설,수세식,없음,N,없음,,2020-08-31
48,개방화장실,죽전동행정복지센터 입구,"대구광역시 달서구 와룡로54길 28 (죽전동, 죽전동행정복지센터)",,N,1,1,0,0,0,0,1,1,0,죽전동행정복지센터,,09:00~18:00,,35.85579022,128.5398036,지방자치단체,공공용시설,수세식,,N,없음,,2020-08-31
49,공중화장실,효원주유소,대구광역시 달서구 와룡로 76 (본리동),,Y,0,0,0,0,0,0,0,0,0,달서구청 환경보호과,,09:00~18:00,,35.83942256,128.5374818,민간,주유소·충전소,수세식,없음,N,없음,,2020-08-31
50,공중화장실,본동문화주유소,대구광역시 달서구 와룡로 6 (본동),,N,1,1,0,0,0,0,1,0,0,달서구청 환경보호과,,09:00~18:00,,35.83325751,128.5384163,민간,주유소·충전소,수세식,없음,N,없음,,2020-08-31
51,개방화장실,우리병원,"대구광역시 달서구 와룡로 48 (본동, 우리병원)",,N,2,2,0,0,0,0,3,1,0,달서구청 환경보호과,,09:00~18:00,,35.83682152,128.5373652,민간,기타,수세식,없음,N,없음,,2020-08-31
52,공중화장실,고려제2주유소,대구광역시 달서구 와룡로 283 (죽전동),,Y,0,0,0,0,0,0,0,0,0,달서구청 환경보호과,,09:00~18:00,,35.85817834,128.5368432,민간,주유소·충전소,수세식,없음,N,없음,,2020-08-31
53,공중화장실,대성유니드주유소,대구광역시 달서구 와룡로 248 (죽전동),,N,2,2,0,0,0,0,1,0,0,달서구청 환경보호과,,09:00~18:00,,35.85496679,128.5376757,민간,주유소·충전소,수세식,없음,N,없음,,2020-08-31
54,개방화장실,죽전119안전센터,"대구광역시 달서구 와룡로 222 (죽전동, 죽전119안전센터)",,N,2,2,0,0,0,0,2,0,0,죽전119안전센터,,09:00~18:00,,35.85259543,128.5376387,국가,공공용시설,수세식,없음,N,없음,,2020-08-31
55,개방화장실,미래여성병원,대구광역시 달서구 와룡로 207 (죽전동),,N,2,1,0,0,0,0,2,0,0,달서구청 환경보호과,,09:00~18:00,,35.8512147,128.5368062,민간,기타,수세식,없음,N,없음,,2020-08-31
56,개방화장실,죽전정형외과,대구광역시 달서구 와룡로 206 (죽전동),,N,1,1,0,0,0,0,2,1,0,달서구청 환경보호과,,09:00~18:00,,35.85106052,128.5375869,민간,기타,수세식,없음,N,없음,,2020-08-31
57,개방화장실,삼성전자 서비스센터,대구광역시 달서구 와룡로 180 (감삼동),,N,1,3,0,0,0,0,1,1,0,달서구청 환경보호과,,09:00~18:00,,35.84876742,128.5376312,민간,기타,수세식,없음,N,없음,,2020-08-31
58,개방화장실,대구개인택시조합제2충전소,대구광역시 달서구 와룡로 159 (감삼동),,N,2,2,0,0,0,0,0,0,0,달서구청 환경보호과,,09:00~18:00,,35.84688553,128.5362445,민간,주유소·충전소,수세식,없음,N,없음,,2020-08-31
59,개방화장실,남부교육지원청 3층,대구광역시 달서구 송현로 192 (본동),,N,2,3,0,0,0,0,2,0,0,남부교육지원청 행정지원과,,08:00~21:00,,35.8349094,128.5453627,지방자치단체,공공용시설,수세식,없음,N,없음,,2020-08-31
60,개방화장실,남부교육지원청 2층,대구광역시 달서구 송현로 192 (본동),,N,2,3,0,0,0,0,2,0,0,남부교육지원청 행정지원과,,08:00~21:00,,35.8349094,128.5453627,지방자치단체,공공용시설,수세식,없음,N,없음,,2020-08-31
61,개방화장실,남부교육지원청 1층,대구광역시 달서구 송현로 192 (본동),,N,2,4,0,0,0,0,2,1,0,남부교육지원청 행정지원과,,08:00~21:00,,35.8349094,128.5453627,지방자치단체,공공용시설,수세식,없음,N,없음,,2020-08-31
62,공중화장실,월성주유소,대구광역시 달서구 송현로 176 (송현동),,Y,0,0,0,0,0,0,0,0,0,달서구청 환경보호과,,09:00~18:00,,35.83299803,128.5448741,민간,주유소·충전소,수세식,없음,N,없음,,2020-08-31
63,개방화장실,본동 종합사회복지관 3층,"대구광역시 달서구 송현로 113 (송현동, 본동주공임대아파트)",,N,0,0,0,0,0,0,2,1,0,본동 종합사회복지관,,08:30~20:30,,35.82712797,128.5433262,지방자치단체,공공용시설,수세식,없음,Y,없음,,2020-08-31
64,개방화장실,본동 종합사회복지관 2층,"대구광역시 달서구 송현로 113 (송현동, 본동주공임대아파트)",,N,2,2,0,0,0,0,3,1,0,본동 종합사회복지관,,08:30~20:30,,35.82712797,128.5433262,지방자치단체,공공용시설,수세식,없음,Y,없음,,2020-08-31
65,개방화장실,본동 종합사회복지관 1층,"대구광역시 달서구 송현로 113 (송현동, 본동주공임대아파트)",,N,2,2,0,0,0,0,3,1,0,본동 종합사회복지관,,08:30~18:00,,35.82712797,128.5433262,지방자치단체,공공용시설,수세식,,Y,없음,,2020-08-31
66,공중화장실,송현시장,"대구광역시 달서구 송현동3길 2 (송현동, 송현시장)",,N,3,3,0,0,0,0,3,0,0,달서구청 경제지원과,,09:00~18:00,,35.83081476,128.5498248,민간,상업시설,수세식,없음,N,없음,,2020-08-31
67,공중화장실,오정공원,대구광역시 달서구 성서서로75길 17-7,,N,1,2,0,0,0,0,1,0,0,신당동 행정복지센터,,09:00~18:00,,35.85842692,128.4989135,지방자치단체,공공용시설,수세식,여자화장실,N,없음,,2020-08-31
68,공중화장실,성서SK주유소,대구광역시 달서구 성서로36길 75 (월암동),,N,0,0,0,0,0,0,0,0,0,달서구청 환경보호과,,09:00~18:00,,35.8331682,128.515662,민간,주유소·충전소,수세식,없음,N,없음,,2020-08-31
69,공중화장실,성서관리공단주유소,대구광역시 달서구 성서로35길 3 (월암동),,Y,0,0,0,0,0,0,0,0,0,달서구청 환경보호과,,09:00~18:00,,35.83227368,128.5065352,민간,주유소·충전소,수세식,없음,N,없음,,2020-08-31
70,개방화장실,성서메가타운,"대구광역시 달서구 성서로 420 (이곡동, 메가타운)",,N,2,3,0,0,0,0,3,0,0,달서구청 환경보호과,,09:00~18:00,,35.8550033,128.5077799,민간,기타,수세식,없음,N,없음,,2020-08-31
71,개방화장실,국민연금공단대구지역본부,대구광역시 달서구 성서로 419 (이곡동),,N,2,3,0,0,0,0,3,1,0,국민연금공단 대구지사,,09:00~20:00,,35.85499529,128.506695,공공기관,공공용시설,수세식,없음,Y,없음,,2020-08-31
72,개방화장실,진천동행정복지센터 1층,"대구광역시 달서구 진천로9길 33 (진천동, 진천동행정복지센터)",,N,1,2,0,0,0,0,3,0,0,진천동행정복지센터,,09:00~18:00,,35.8122214,128.5228091,지방자치단체,공공용시설,수세식,,Y,없음,,2020-08-31
73,개방화장실,대구진천동우체국,대구광역시 달서구 월배로 32,,Y,0,0,0,0,0,0,0,0,0,대구진천동우체국,,09:00~18:00,,35.81237384,128.518453,국가,공공용시설,수세식,없음,N,없음,,2020-08-31
74,개방화장실,이마트월배점 4층,"대구광역시 달서구 진천로 92 (대천동, 이마트월배점)",,N,2,4,0,0,0,0,4,0,0,월배이마트 기술운영팀,,10:00~00:00,,35.81718507,128.5236563,민간,상업시설,수세식,없음,N,없음,,2020-08-31
75,개방화장실,이마트월배점 3층,"대구광역시 달서구 진천로 92 (대천동, 이마트월배점)",,N,2,4,0,0,0,0,4,1,0,월배이마트 기술운영팀,,10:00~00:00,,35.81718507,128.5236563,민간,상업시설,수세식,없음,N,없음,,2020-08-31
76,개방화장실,이마트월배점 2층,"대구광역시 달서구 진천로 92 (대천동, 이마트월배점)",,N,2,4,0,0,0,0,5,1,0,월배이마트 기술운영팀,,10:00~00:00,,35.81718507,128.5236563,민간,상업시설,수세식,없음,N,없음,,2020-08-31
77,개방화장실,이마트월배점 1층,"대구광역시 달서구 진천로 92 (대천동, 이마트월배점)",,N,2,4,0,0,0,0,5,1,0,월배이마트 기술운영팀,,10:00~00:00,,35.81718507,128.5236563,민간,상업시설,수세식,없음,Y,없음,,2020-08-31
78,공중화장실,우광주유소,대구광역시 달서구 진천로 87 (대천동),,Y,1,2,0,0,0,0,1,0,0,달서구청 환경보호과,,09:00~18:00,,35.81621915,128.5225093,민간,주유소·충전소,수세식,없음,N,없음,,2020-08-31
79,공중화장실,대천주유소,대구광역시 달서구 진천로 112 (대천동),,Y,0,0,0,0,0,0,0,0,0,달서구청 환경보호과,,09:00~18:00,,35.8184921,128.5223491,민간,주유소·충전소,수세식,없음,N,없음,,2020-08-31
80,개방화장실,송현1동행정복지센터,"대구광역시 달서구 중흥로8길 41 (송현동, 송현1동행정복지센터)",,N,3,6,0,0,0,0,6,1,0,송현1동행정복지센터,,09:00~18:00,,35.82923352,128.5547559,지방자치단체,공공용시설,수세식,,N,없음,,2020-08-31
81,개방화장실,달서영어도서관,대구광역시 달서구 중흥로6길 10 (송현동),,N,4,5,0,0,0,0,8,1,0,달서구청 도서관과,,09:00~18:00,,35.83126056,128.555216,지방자치단체,공공용시설,수세식,여자화장실,N,없음,,2020-08-31
82,공중화장실,조암주유소,대구광역시 달서구 조암로 84 (월성동),,N,0,0,0,0,0,0,1,0,0,달서구청 환경보호과,,09:00~18:00,,35.8231412,128.520995,민간,주유소·충전소,수세식,없음,N,없음,,2020-08-31
83,개방화장실,원더풀메디컬센터,대구광역시 달서구 조암남로 38 (월성동),,N,2,2,0,0,0,0,2,0,0,달서구청 환경보호과,,09:00~18:00,,35.82193811,128.528598,민간,기타,수세식,없음,N,없음,,2020-08-31
84,개방화장실,달서가족문화도서관,"대구광역시 달서구 조암남로 137 (대천동, 달서가족문화센터)",,N,4,4,0,0,0,0,8,1,0,달서구청 도서관과,,09:00~18:00,,35.81748676,128.5191877,지방자치단체,공공용시설,수세식,여자화장실,N,여자화장실,,2020-08-31
85,개방화장실,대구지방검찰청 서부지청 1층,"대구광역시 달서구 장산남로 40 (용산동, 대구지방검찰청서부지청)",,N,3,3,0,0,0,0,3,1,0,대구지방검찰청 서부지청 총무과,,09:00~18:00,,35.85288443,128.5262829,국가,공공용시설,수세식,없음,N,없음,,2020-08-31
86,개방화장실,대구가정법원 5층 북측,"대구광역시 달서구 장산남로 30 (용산동, 대구지방법원서부지원, 대구가정법원)",,N,3,2,0,0,0,0,3,0,0,대구가정법원 총무과,,08:30~18:30,,35.85306271,128.5275703,국가,공공용시설,수세식,없음,N,없음,,2020-08-31
87,개방화장실,대구가정법원 4층 북측,"대구광역시 달서구 장산남로 30 (용산동, 대구지방법원서부지원, 대구가정법원)",,N,4,5,0,0,0,0,4,1,0,대구가정법원 총무과,,08:30~18:30,,35.85306271,128.5275703,국가,공공용시설,수세식,없음,N,여자화장실,,2020-08-31
88,개방화장실,대구가정법원 3층 북측,"대구광역시 달서구 장산남로 30 (용산동, 대구지방법원서부지원, 대구가정법원)",,N,4,5,0,0,0,0,4,1,0,대구가정법원 총무과,,08:30~18:30,,35.85306271,128.5275703,국가,공공용시설,수세식,없음,N,여자화장실,,2020-08-31
89,개방화장실,대구가정법원 2층 북측,"대구광역시 달서구 장산남로 30 (용산동, 대구지방법원서부지원, 대구가정법원)",,N,4,5,0,0,0,0,4,1,0,대구가정법원 총무과,,08:30~18:30,,35.85306271,128.5275703,국가,공공용시설,수세식,없음,N,여자화장실,,2020-08-31
90,개방화장실,대구가정법원 1층 남측,"대구광역시 달서구 장산남로 30 (용산동, 대구지방법원서부지원, 대구가정법원)",,N,2,3,0,0,0,0,2,0,0,대구가정법원 총무과,,08:30~18:30,,35.85306271,128.5275703,국가,공공용시설,수세식,없음,Y,없음,,2020-08-31
91,개방화장실,대구가정법원 1층 서편,"대구광역시 달서구 장산남로 30 (용산동, 대구지방법원서부지원, 대구가정법원)",,N,3,3,0,0,0,0,2,0,0,대구가정법원 총무과,,08:30~18:30,,35.85306271,128.5275703,국가,공공용시설,수세식,없음,Y,여자화장실,,2020-08-31
92,개방화장실,대구가정법원 1층 북측,"대구광역시 달서구 장산남로 30 (용산동, 대구지방법원서부지원, 대구가정법원)",,N,4,5,0,0,0,0,4,1,0,대구가정법원 총무과,,08:30~18:30,,35.85306271,128.5275703,국가,공공용시설,수세식,없음,Y,여자화장실,,2020-08-31
93,개방화장실,법조빌딩,"대구광역시 달서구 장산남로 21 (용산동, 법조빌딩)",,N,2,2,0,0,0,0,3,1,0,달서구청 환경보호과,,09:00~18:00,,35.85169853,128.5279825,민간,기타,수세식,없음,N,없음,,2020-08-31
94,공중화장실,구마종합시장,"대구광역시 달서구 장기로5길 29 (성당동, 구마시장아파트)",,N,0,2,0,0,0,0,0,0,0,달서구청 경제지원과,,09:00~18:00,,35.84123122,128.5546359,민간,상업시설,수세식,없음,N,없음,,2020-08-31
95,개방화장실,장기동행정복지센터,"대구광역시 달서구 장기로 277 (장기동, 장기동주민센터)",,N,7,6,0,0,0,0,10,1,0,장기동행정복지센터,,09:00~18:00,,35.84335012,128.5299739,지방자치단체,공공용시설,수세식,여자화장실,N,없음,,2020-08-31
96,개방화장실,장기동우체국,"대구광역시 달서구 장기로 273 (장기동, 장기동우체국)",,N,1,4,0,0,0,0,0,0,0,대구장기동우체국,,09:00~18:00,,35.84331734,128.5302832,국가,공공용시설,수세식,없음,N,없음,,2020-08-31
97,공중화장실,한마음공원,대구광역시 달서구 조암남로 172-13,,N,2,2,0,0,0,0,4,0,0,달서구청 공원녹지과,,09:00~18:00,,35.8165684,128.515696,지방자치단체,공공용시설,수세식,여자화장실,N,없음,,2020-08-31
98,공중화장실,흐르네공원,대구광역시 달서구 월배로5길 76,,N,2,2,0,0,0,0,4,1,0,달서구청 공원녹지과,,09:00~18:00,,35.81936758,128.513824,지방자치단체,공공용시설,수세식,여자화장실,N,없음,,2020-08-31
99,공중화장실,선돌공원,대구광역시 달서구 조암로20길 50,,N,3,3,0,0,0,0,4,1,0,달서구청 공원녹지과,,09:00~18:00,,35.82370034,128.5181111,지방자치단체,공공용시설,수세식,여자화장실,N,없음,,2020-08-31
100,개방화장실,성서 롯데시네마,"대구광역시 달서구 성서로 414 (이곡동, 성서롯데시네마)",,N,2,2,0,0,0,0,2,0,0,달서구청 환경보호과,,09:00~20:00,,35.85443019,128.5077779,민간,기타,수세식,없음,N,없음,,2020-08-31
101,개방화장실,대구성서우체국,"대구광역시 달서구 성서로 406 (이곡동, 대구성서우체국)",,N,1,15,0,0,0,0,0,0,0,대구성서우체국,,09:00~18:00,,35.853764,128.5077255,국가,공공용시설,수세식,없음,N,없음,,2020-08-31
102,개방화장실,하나은행 건물,대구광역시 달서구 성서로 399 (이곡동),,N,2,2,0,0,0,0,2,0,0,달서구청 환경보호과,,09:00~18:00,,35.8531883,128.5067803,민간,기타,수세식,없음,N,없음,,2020-08-31
103,개방화장실,성서119안전센터,"대구광역시 달서구 성서로 357 (이곡동, 성서119안전센터)",,Y,0,0,0,0,0,1,0,0,0,성서119안전센터,,09:00~18:00,,35.84950308,128.5068833,국가,공공용시설,수세식,없음,N,없음,,2020-08-31
104,공중화장실,장동주유소,대구광역시 달서구 성서동로 208 (장동),,N,1,2,0,0,0,0,2,0,0,달서구청 환경보호과,,09:00~18:00,,35.83925522,128.5160435,민간,주유소·충전소,수세식,없음,N,없음,,2020-08-31
105,공중화장실,에프주유소,대구광역시 달서구 성서동로 184 (장동),,N,1,2,0,0,0,0,1,0,0,달서구청 환경보호과,,09:00~18:00,,35.8371364,128.5162732,민간,주유소·충전소,수세식,없음,N,없음,,2020-08-31
106,개방화장실,sk가스세영충전소,대구광역시 달서구 성서공단북로69길 33 (갈산동),,N,0,0,0,0,0,0,0,0,0,달서구청 환경보호과,,09:00~18:00,,35.84631697,128.5100106,민간,주유소·충전소,수세식,없음,N,없음,,2020-08-31
107,공중화장실,고려제일 오일뱅크,대구광역시 달서구 성서공단로54길 8 (월암동),,N,0,1,0,0,0,0,0,0,0,달서구청 환경보호과,,09:00~18:00,,35.83416652,128.5113828,민간,주유소·충전소,수세식,없음,N,없음,,2020-08-31
108,개방화장실,시설안전관리사업소,대구광역시 달서구 성서공단로 58 (대천동),,N,2,3,0,0,0,0,2,1,0,시설안전관리사업소 시설안전과,,09:00~18:00,,35.83250009,128.4901126,공공기관,공공용시설,수세식,없음,N,없음,,2020-08-31
109,개방화장실,테크노파크 신기술산업지원센터,"대구광역시 달서구 성서공단로 46-17 (대천동, 대구테크노파크 신기술산업지원센터)",,N,2,3,0,0,0,0,4,0,0,달서구청 환경보호과,,09:00~18:00,,35.83285784,128.4882955,지방자치단체,공공용시설,수세식,없음,N,없음,,2020-08-31
110,공중화장실,호림강나루공원,대구광역시 달서구 성서공단로 40,,N,1,1,0,0,0,0,13,0,0,달서구청 공원녹지과,,09:00~18:00,,35.83282414,128.4872325,지방자치단체,공공용시설,수세식,여자화장실,N,없음,,2020-08-31
111,공중화장실,남대구IC주유소,대구광역시 달서구 성서공단로 372 (월성동),,N,1,2,0,0,0,0,1,0,0,달서구청 환경보호과,,09:00~18:00,,35.83649,128.5234898,민간,주유소·충전소,수세식,없음,N,없음,,2020-08-31
112,개방화장실,한성LPG충전소,대구광역시 달서구 성서공단로 346 (월성동),,N,0,0,0,0,0,0,0,0,0,달서구청 환경보호과,,09:00~18:00,,35.83633903,128.5203262,민간,주유소·충전소,수세식,없음,N,없음,,2020-08-31
113,공중화장실,대구화물터미널,대구광역시 달서구 성서공단로 346 (월성동),,N,3,5,0,0,0,0,0,1,0,달서구청 환경보호과,,09:00~18:00,,35.83633903,128.5203262,민간,기타,수세식,없음,N,없음,,2020-08-31
114,공중화장실,한국주유소,대구광역시 달서구 와룡로 150 (감삼동),,Y,1,2,0,0,0,0,1,0,0,달서구청 환경보호과,,09:00~18:00,,35.84607933,128.5375572,민간,주유소·충전소,수세식,없음,N,없음,,2020-08-31
115,개방화장실,이마트 감삼점 지하2층 고객,"대구광역시 달서구 와룡로 143 (감삼동, 우방드림시티아파트)",,N,3,4,0,0,0,0,5,0,0,이마트 감삼점,,06:00~23:00,,35.84550704,128.536364,민간,상업시설,수세식,없음,N,여자화장실,,2020-08-31
116,개방화장실,이마트 감삼점 지하3층 고객,"대구광역시 달서구 와룡로 143 (감삼동, 우방드림시티아파트)",,N,3,4,0,0,0,0,5,0,0,이마트 감삼점,,06:00~23:00,,35.84550704,128.536364,민간,상업시설,수세식,없음,N,여자화장실,,2020-08-31
117,공중화장실,신내당시장,"대구광역시 달서구 야외음악당로39길 62 (두류동, 신내당시장아파트)",,N,2,3,0,0,0,0,4,0,0,달서구청 경제지원과,,09:00~18:00,,35.85462166,128.5538524,민간,상업시설,수세식,없음,N,없음,,2020-08-31
118,개방화장실,두류3동행정복지센터,"대구광역시 달서구 야외음악당로39길 24 (두류동, 두류3동주민센터)",,N,1,1,0,0,0,0,1,0,0,두류3동행정복지센터,,09:00~18:00,,35.85370669,128.5554772,지방자치단체,공공용시설,수세식,,N,없음,,2020-08-31
119,공중화장실,극동주유소,대구광역시 달서구 야외음악당로 83 (성당동),,Y,0,0,0,0,0,0,0,0,0,달서구청 환경보호과,,09:00~18:00,,35.84467923,128.5519717,민간,주유소·충전소,수세식,없음,N,없음,,2020-08-31
120,개방화장실,성당동행정복지센터,"대구광역시 달서구 야외음악당로 38 (성당동, 성당동행정복지센터)",,N,1,2,0,0,0,0,3,1,0,성당동행정복지센터,,09:00~18:00,,35.84061243,128.5531497,지방자치단체,공공용시설,수세식,여자화장실,N,없음,,2020-08-31
121,개방화장실,두류파출소,"대구광역시 달서구 야외음악당로 280 (두류동, 두류파출소)",,N,1,1,0,0,0,0,1,0,0,두류파출소,,00:00~23:50,,35.85642257,128.5647889,국가,공공용시설,수세식,없음,N,없음,,2020-08-31
122,개방화장실,두류3동파출소,"대구광역시 달서구 야외음악당로 202 (두류동, 두류3동파출소)",,Y,0,0,0,0,0,0,0,0,0,두류3동파출소,,00:00~23:50,,35.85337583,128.5573658,국가,공공용시설,수세식,없음,N,없음,,2020-08-31
123,공중화장실,송남시장,"대구광역시 달서구 앞산순환로55길 68 (송현동, 송남시장송남연립주택)",,N,2,4,0,0,0,0,6,0,0,달서구청 경제지원과,,09:00~18:00,,35.82899412,128.5554285,민간,상업시설,수세식,없음,N,없음,,2020-08-31
124,공중화장실,송경종합시장,"대구광역시 달서구 앞산순환로49길 73 (송현동, 송경시장)",,N,2,2,0,0,0,0,2,1,0,달서구청 경제지원과,,09:00~18:00,,35.82709668,128.5516336,민간,상업시설,수세식,없음,N,없음,,2020-08-31
125,공중화장실,태송주유소,대구광역시 달서구 앞산순환로 237 (송현동),,N,1,2,0,0,0,0,2,0,0,달서구청 환경보호과,,09:00~18:00,,35.82493818,128.5543712,민간,주유소·충전소,수세식,없음,N,없음,,2020-12-04
126,공중화장실,대덕승마장,대구광역시 달서구 앞산순환로 206 (송현동),,N,1,1,0,0,0,0,2,0,0,달서구청 환경보호과,,09:00~18:00,,35.82197719,128.5539372,지방자치단체,관광·체육시설,수세식,없음,N,없음,,2020-08-31
127,공중화장실,대경주유소,대구광역시 달서구 앞산순환로 181 (송현동),,Y,0,0,0,0,0,0,0,0,0,달서구청 환경보호과,,09:00~18:00,,35.82069637,128.551239,민간,주유소·충전소,수세식,없음,N,없음,,2020-08-31
128,개방화장실,대구광역시청소년수련원,"대구광역시 달서구 앞산순환로 180 (송현동, 청소년수련원)",,N,5,13,0,0,0,0,8,1,0,대구광역시청소년수련원,,09:00~20:00,,35.82024301,128.5534077,지방자치단체,공공용시설,수세식,없음,N,없음,,2020-08-31
129,개방화장실,성서종합사회복지관 3층,"대구광역시 달서구 신당로 56 (신당동, 성서주공1단지아파트)",,N,2,3,0,0,0,0,2,1,0,성서종합사회복지관 복지행정팀,,09:00~20:00,,35.85230021,128.4988203,지방자치단체,공공용시설,수세식,없음,N,없음,,2020-08-31
130,개방화장실,성서종합사회복지관 2층,"대구광역시 달서구 신당로 56 (신당동, 성서주공1단지아파트)",,N,2,2,0,0,0,0,3,1,0,성서종합사회복지관 복지행정팀,,09:00~20:00,,35.85230021,128.4988203,지방자치단체,공공용시설,수세식,없음,N,없음,,2020-08-31
131,개방화장실,성서종합사회복지관 1층,"대구광역시 달서구 신당로 56 (신당동, 성서주공1단지아파트)",,N,2,2,0,0,0,0,2,1,0,성서종합사회복지관 복지행정팀,,09:00~20:00,,35.85230021,128.4988203,지방자치단체,공공용시설,수세식,,N,없음,,2020-08-31
132,공중화장실,앞돌공원,대구광역시 달서구 신당로 56,,Y,0,0,0,0,0,0,0,0,0,신당동 행정복지센터,,09:00~18:00,,35.85230021,128.4988203,지방자치단체,공공용시설,수세식,여자화장실,N,없음,,2020-08-31
133,개방화장실,신당종합사회복지관,"대구광역시 달서구 신당로 55 (신당동, 성서주공3단지아파트)",,Y,0,0,0,0,0,0,0,1,0,달서구청 건설과,,09:00~22:00,,35.85384566,128.4974502,지방자치단체,공공용시설,수세식,없음,N,없음,,2020-08-31
134,공중화장실,송현주공시장,대구광역시 달서구 송현로12안길 38,,N,2,3,0,0,0,0,4,1,0,달서구청 경제지원과,,09:00~18:00,,35.82274003,128.5481762,민간,상업시설,수세식,없음,Y,없음,,2020-08-31
135,개방화장실,대구E1충전소,대구광역시 달서구 송현로 55 (상인동),,N,2,3,0,0,0,0,2,0,0,달서구청 환경보호과,,09:00~18:00,,35.8230087,128.545787,민간,주유소·충전소,수세식,없음,N,없음,,2020-08-31
136,개방화장실,대구상인동우체국,"대구광역시 달서구 송현로 47 (상인동, 상인동우체국)",,Y,0,0,0,0,0,0,0,0,0,대구상인동우체국,,09:00~18:00,,35.82266451,128.5467629,국가,공공용시설,수세식,없음,N,없음,,2020-08-31
137,개방화장실,달서어린이도서관,"대구광역시 달서구 송현로 45 (상인동, 달서어린이도서관)",,N,3,6,0,0,0,0,6,1,0,달서구청 도서관과,,09:00~18:00,,35.82248463,128.5470161,지방자치단체,공공용시설,수세식,없음,Y,없음,,2020-08-31
138,개방화장실,남부교육지원청 5층,대구광역시 달서구 송현로 192 (본동),,N,1,3,0,0,0,0,2,0,0,남부교육지원청 행정지원과,,08:00~21:00,,35.8349094,128.5453627,지방자치단체,공공용시설,수세식,없음,N,없음,,2020-08-31
139,개방화장실,남부교육지원청 4층,대구광역시 달서구 송현로 192 (본동),,N,1,3,0,0,0,0,2,0,0,남부교육지원청 행정지원과,,08:00~21:00,,35.8349094,128.5453627,지방자치단체,공공용시설,수세식,없음,N,없음,,2020-08-31
140,공중화장실,조암구석기공원,대구광역시 달서구 조암로6길 20,,N,3,3,0,0,0,0,4,1,0,달서구청 공원녹지과,,09:00~18:00,,35.82912965,128.5260226,지방자치단체,공공용시설,수세식,여자화장실,N,없음,,2020-08-31
141,공중화장실,마을마당공원,대구광역시 달서구 조암로 29,,N,3,3,0,0,0,0,4,1,0,달서구청 공원녹지과,,09:00~18:00,,35.82455256,128.5268113,지방자치단체,공공용시설,수세식,여자화장실,N,없음,,2020-08-31
142,공중화장실,학산공원1,대구광역시 달서구 학산로2길 39,,N,2,3,0,0,0,0,2,0,0,달서구청 공원녹지과,,09:00~18:00,,35.82423825,128.5347899,지방자치단체,공공용시설,수세식,여자화장실,N,없음,,2020-08-31
143,공중화장실,월성공원,대구광역시 달서구 학산로7길 26,,N,1,2,0,0,0,0,2,1,0,달서구청 공원녹지과,,09:00~18:00,,35.83108789,128.5318986,지방자치단체,공공용시설,수세식,여자화장실,N,없음,,2020-08-31
144,공중화장실,평화공원,대구광역시 달서구 학산로7길 27,,N,1,1,0,0,0,0,2,0,0,월성2동 행정복지센터,,09:00~18:00,,35.83033022,128.5311049,지방자치단체,공공용시설,수세식,여자화장실,N,없음,,2020-08-31
145,공중화장실,효성공원,대구광역시 달서구 학산로7길 39,,N,1,1,0,0,0,0,2,0,0,월성2동 행정복지센터,,09:00~18:00,,35.83157511,128.5298717,지방자치단체,공공용시설,수세식,여자화장실,N,없음,,2020-08-31
146,공중화장실,창공공원,대구광역시 달서구 구마로14남길 55,,N,1,1,0,0,0,0,2,0,0,월성2동 행정복지센터,,09:00~18:00,,35.83192634,128.5331408,지방자치단체,공공용시설,수세식,여자화장실,N,없음,,2020-08-31
147,공중화장실,연왕공원,대구광역시 달서구 구마로12길 60,,N,1,1,0,0,0,0,2,0,0,월성2동 행정복지센터,,09:00~18:00,,35.83522512,128.5330981,지방자치단체,공공용시설,수세식,여자화장실,N,없음,,2020-08-31
148,공중화장실,영광공원,대구광역시 달서구 상인로 139,,N,1,3,0,0,0,0,1,0,0,상인1동 행정복지센터,,09:00~18:00,,35.81828594,128.5435976,지방자치단체,공공용시설,수세식,여자화장실,N,없음,,2020-08-31
149,공중화장실,월광수변공원3,대구광역시 달서구 월곡로 5,,N,2,3,0,0,0,0,5,0,0,달서구청 공원녹지과,,09:00~18:00,,35.79880747,128.5482868,지방자치단체,공공용시설,수세식,여자화장실,N,여자화장실,,2020-08-31
150,공중화장실,월천공원,대구광역시 달서구 성서4차첨단로 90,,N,1,3,0,0,0,0,2,1,0,달서구청 공원녹지과,,09:00~18:00,,35.8229446,128.5125819,지방자치단체,공공용시설,수세식,여자화장실,N,없음,,2020-08-31
151,공중화장실,한샘공원,대구광역시 달서구 조암남로26길 30,,N,2,2,0,0,0,0,4,1,0,달서구청 공원녹지과,,09:00~18:00,,35.82024706,128.5178284,지방자치단체,공공용시설,수세식,여자화장실,N,없음,,2020-08-31
152,공중화장실,강창공원,대구광역시 달서구 호산로 126,,N,2,3,0,0,0,0,3,1,0,신당동 행정복지센터,,09:00~18:00,,35.85002419,128.4788713,지방자치단체,공공용시설,수세식,여자화장실,N,여자화장실,,2020-08-31
153,개방화장실,대구강창우체국,"대구광역시 달서구 호산로 124 (호산동, 강창우체국)",,N,1,2,0,0,0,0,1,0,0,대구강창우체국,,09:00~18:00,,35.8508524,128.4783553,국가,공공용시설,수세식,없음,N,없음,,2020-08-31
154,개방화장실,도원동 행정복지센터 4층 서편 공중,"대구광역시 달서구 한실로 53 (도원동, 도원동행정복지센터)",,N,0,1,0,0,0,0,1,0,0,도원동 행정복지센터,,09:00~18:00,,35.80748105,128.5321884,지방자치단체,공공용시설,수세식,없음,N,없음,,2020-08-31
155,개방화장실,도원동 행정복지센터 2층 서편 공중,"대구광역시 달서구 한실로 53 (도원동, 도원동행정복지센터)",,Y,0,0,0,0,0,0,0,0,0,도원동 행정복지센터,,09:00~18:00,,35.80748105,128.5321884,지방자치단체,공공용시설,수세식,없음,N,없음,,2020-08-31
156,개방화장실,도원동 행정복지센터 4층 동편 공중,"대구광역시 달서구 한실로 53 (도원동, 도원동행정복지센터)",,N,1,2,0,0,0,1,1,0,0,도원동 행정복지센터,,09:00~18:00,,35.80748105,128.5321884,지방자치단체,공공용시설,수세식,없음,N,없음,,2020-08-31
157,개방화장실,도원동 행정복지센터 3층 공중,"대구광역시 달서구 한실로 53 (도원동, 도원동행정복지센터)",,N,1,2,0,0,0,0,0,0,0,도원동 행정복지센터,,09:00~18:00,,35.80748105,128.5321884,지방자치단체,공공용시설,수세식,없음,N,없음,,2020-08-31
158,개방화장실,도원동 행정복지센터 2층 동편 공중,"대구광역시 달서구 한실로 53 (도원동, 도원동행정복지센터)",,N,1,2,0,0,0,0,1,0,0,도원동 행정복지센터,,09:00~18:00,,35.80748105,128.5321884,지방자치단체,공공용시설,수세식,없음,N,없음,,2020-08-31
159,개방화장실,도원동 행정복지센터 1층 공중,"대구광역시 달서구 한실로 53 (도원동, 도원동행정복지센터)",,N,1,3,0,0,0,0,2,0,0,도원동 행정복지센터,,09:00~18:00,,35.80748105,128.5321884,지방자치단체,공공용시설,수세식,,N,없음,,2020-08-31
160,개방화장실,도원치안센터,"대구광역시 달서구 한실로 115 (도원동, 도원치안센터)",,Y,0,0,0,0,0,0,0,0,0,달서경찰서 대곡파출소,,09:00~18:00,,35.80677369,128.5393081,공공기관,공공용시설,수세식,없음,N,없음,,2020-08-31
161,개방화장실,롯데리아 대구성당DT점,"대구광역시 달서구 구마로 209, 2층 (성당동)",대구광역시 달서구 성당동 825-26,N,1,1,0,0,0,0,2,0,0,롯데리아 대구성당DT점,053-656-9801,상시,,,,민간,상업시설,수세식,없음,N,없음,,2021-01-28
162,공중화장실,이곡장미공원,대구광역시 달서구 선원남로 127,,N,1,6,0,0,0,0,5,1,0,달서구청 공원녹지과,,09:00~18:00,,35.85809604,128.5135152,지방자치단체,공공용시설,수세식,여자화장실,N,여자화장실,,2020-08-31
163,공중화장실,돌산공원,대구광역시 달서구 서당로9길 34-13,,Y,0,0,0,0,0,0,0,0,0,신당동 행정복지센터,,09:00~18:00,,35.85691014,128.4936423,지방자치단체,공공용시설,수세식,여자화장실,N,없음,,2020-08-31
164,공중화장실,청록공원,대구광역시 달서구 서당로 30,,N,1,2,0,0,0,0,1,0,0,신당동 행정복지센터,,09:00~18:00,,35.85457267,128.4963835,지방자치단체,공공용시설,수세식,여자화장실,N,없음,,2020-08-31
165,공중화장실,에버그린주유소,대구광역시 달서구 새방로 87 (용산동),,N,1,2,0,0,0,0,1,0,0,달서구청 환경보호과,,09:00~18:00,,35.86510774,128.5262782,민간,주유소·충전소,수세식,없음,N,없음,,2020-08-31
166,공중화장실,유림공원,대구광역시 달서구 상화북로 216-1,,N,1,3,0,0,0,0,1,0,0,상인3동 행정복지센터,,09:00~18:00,,35.81463803,128.5486429,지방자치단체,공공용시설,수세식,여자화장실,N,없음,,2020-08-31
167,공중화장실,장미공원,대구광역시 달서구 상화북로 195-9,,N,1,3,0,0,0,0,1,0,0,상인3동 행정복지센터,,09:00~18:00,,35.81424147,128.5458471,지방자치단체,공공용시설,수세식,여자화장실,N,없음,,2020-08-31
168,공중화장실,한빛공원,대구광역시 달서구 상화북로 195,,N,1,3,0,0,0,0,1,0,0,상인1동 행정복지센터,,09:00~18:00,,35.81403444,128.546529,지방자치단체,공공용시설,수세식,여자화장실,N,없음,,2020-08-31
169,공중화장실,스타주유소,대구광역시 달서구 상화북로 179 (상인동),,N,1,0,0,0,0,0,1,0,0,달서구청 환경보호과,,09:00~18:00,,35.81295575,128.5451982,민간,주유소·충전소,수세식,없음,N,없음,,2020-08-31
170,공중화장실,장미공원,대구광역시 달서구 상화로5길 64,,N,1,1,0,0,0,0,2,0,0,진천동 행정복지센터,,09:00~18:00,,35.81167764,128.5184928,지방자치단체,공공용시설,수세식,여자화장실,N,없음,,2020-08-31
171,공중화장실,수목원주유소,대구광역시 달서구 상화로 99 (진천동),,N,1,2,0,0,0,1,2,0,0,달서구청 환경보호과,,09:00~18:00,,35.80839626,128.5245637,민간,주유소·충전소,수세식,없음,N,없음,,2020-08-31
172,개방화장실,달서구청소년수련관 3층,대구광역시 달서구 상화로 420 (상인동),,N,3,4,0,0,0,0,3,1,0,달서구 청소년수련관,,05:30~22:00,,35.80719897,128.5594461,지방자치단체,공공용시설,수세식,,N,없음,,2020-08-31
173,개방화장실,달서구청소년수련관 2층,대구광역시 달서구 상화로 420 (상인동),,N,3,4,0,0,0,0,3,0,0,달서구 청소년수련관,,05:30~22:00,,35.80719897,128.5594461,지방자치단체,공공용시설,수세식,,N,없음,,2020-08-31
174,개방화장실,달서구청소년수련관 1층,대구광역시 달서구 상화로 420 (상인동),,N,3,4,0,0,0,0,3,1,0,달서구 청소년수련관,,05:30~22:00,,35.80719897,128.5594461,지방자치단체,공공용시설,수세식,,N,없음,,2020-08-31
175,개방화장실,달서구상담센터건물 2층,대구광역시 달서구 상화로 406 (상인동),,N,2,4,0,0,0,0,6,1,0,달서구 청소년수련관,,09:00~18:00,,35.80788516,128.5582338,지방자치단체,공공용시설,수세식,없음,N,없음,,2020-08-31
176,개방화장실,달서구상담센터건물 1층 외부,대구광역시 달서구 상화로 406 (상인동),,N,2,3,0,0,0,0,6,1,0,달서구 청소년수련관,,09:00~18:00,,35.80788516,128.5582338,지방자치단체,공공용시설,수세식,없음,N,없음,,2020-08-31
177,개방화장실,상인종합사회복지관,"대구광역시 달서구 상화로 371 (상인동, 상인비둘기1단지아파트)",,N,7,9,0,0,0,0,7,1,0,상인종합사회복지관,,09:00~21:00,,35.80867638,128.5522443,지방자치단체,공공용시설,수세식,,N,없음,,2020-08-31
178,공중화장실,비둘기공원,대구광역시 달서구 상화로 371,,N,1,3,0,0,0,0,1,0,0,상인3동 행정복지센터,,09:00~18:00,,35.80867638,128.5522443,지방자치단체,공공용시설,수세식,여자화장실,N,없음,,2020-08-31
179,공중화장실,대곡주유소,대구광역시 달서구 상화로 302 (도원동),,N,1,2,0,0,0,0,1,0,0,달서구청 환경보호과,,09:00~18:00,,35.80787614,128.546653,민간,주유소·충전소,수세식,없음,N,없음,,2020-08-31
180,개방화장실,한국토지주택공사 대구경북지역본부,"대구광역시 달서구 상화로 272 (도원동, LH대구경북지역본부)",,N,27,33,0,0,0,0,28,1,0,한국토지주택공사 대구경북지역본부 경영지원부,,09:00~20:00,,35.80774268,128.5435749,공공기관,공공용시설,수세식,없음,N,없음,,2020-08-31
181,개방화장실,대구상인1동우체국,"대구광역시 달서구 상인서로10길 6-4 (상인동, 상인1동우체국)",,Y,0,0,0,0,0,0,0,0,0,대구상인1동우체국,,09:00~18:00,,35.81416734,128.5451641,국가,공공용시설,수세식,없음,N,없음,,2020-08-31
182,공중화장실,송림공원,대구광역시 달서구 상인서로10길 50,,N,1,3,0,0,0,0,1,0,0,상인1동 행정복지센터,,09:00~18:00,,35.81712643,128.5485496,지방자치단체,공공용시설,수세식,여자화장실,N,없음,,2020-08-31
183,공중화장실,태양공원,대구광역시 달서구 상인서로 94,,N,1,3,0,0,0,0,1,0,0,상인1동 행정복지센터,,09:00~18:00,,35.81833275,128.5407926,지방자치단체,공공용시설,수세식,여자화장실,N,없음,,2020-08-31
184,공중화장실,상인영남화성상가시장,"대구광역시 달서구 상인서로 76 (상인동, 상인영남화성타운)",,N,2,3,0,0,0,0,2,0,0,달서구청 경제지원과,,09:00~18:00,,35.81651836,128.5425764,민간,상업시설,수세식,없음,N,없음,,2020-08-31
185,공중화장실,보배공원,대구광역시 달서구 상인서로 75,,N,1,3,0,0,0,0,1,0,0,상인1동 행정복지센터,,09:00~18:00,,35.81584339,128.5415234,지방자치단체,공공용시설,수세식,여자화장실,N,없음,,2020-08-31
186,공중화장실,동심공원,대구광역시 달서구 상인서로 51,,N,1,3,0,0,0,0,1,0,0,상인1동 행정복지센터,,09:00~18:00,,35.81463663,128.5437084,지방자치단체,공공용시설,수세식,여자화장실,N,없음,,2020-08-31
187,개방화장실,상인1동행정복지센터 1층 장애인,"대구광역시 달서구 상인서로 40 (상인동, 상인1동행정복지센터)",,N,1,0,0,0,0,0,1,1,0,달서구 상인1동행정복지센터,,09:00~18:00,,35.81426303,128.5450111,지방자치단체,공공용시설,수세식,,N,없음,,2020-08-31
188,개방화장실,상인1동행정복지센터 2층,"대구광역시 달서구 상인서로 40 (상인동, 상인1동행정복지센터)",,Y,0,0,0,0,0,0,0,1,0,달서구 상인1동행정복지센터,,09:00~18:00,,35.81426303,128.5450111,지방자치단체,공공용시설,수세식,없음,N,없음,,2020-08-31
189,개방화장실,상인1동행정복지센터 1층,"대구광역시 달서구 상인서로 40 (상인동, 상인1동행정복지센터)",,N,2,3,0,0,0,0,1,1,0,달서구 상인1동행정복지센터,,09:00~18:00,,35.81426303,128.5450111,지방자치단체,공공용시설,수세식,없음,N,없음,,2020-08-31
190,개방화장실,상인지구대,"대구광역시 달서구 상인서로 36 (상인동, 상인지구대)",,N,2,3,0,0,0,0,2,0,0,달서경찰서 상인지구대,,00:00~23:50,,35.81403994,128.5449802,공공기관,공공용시설,수세식,없음,N,없음,,2020-08-31
191,공중화장실,당산공원,대구광역시 달서구 상인로9길 25,,N,1,3,0,0,0,0,1,0,0,상인3동 행정복지센터,,09:00~18:00,,35.81085025,128.5477506,지방자치단체,공공용시설,수세식,여자화장실,N,없음,,2020-08-31
192,공중화장실,새싹공원,대구광역시 달서구 상인로26길 48,,N,1,3,0,0,0,0,1,0,0,상인1동 행정복지센터,,09:00~18:00,,35.8170625,128.5467958,지방자치단체,공공용시설,수세식,여자화장실,N,없음,,2020-08-31
193,공중화장실,성서보성화성상가시장,"대구광역시 달서구 계대동문로 99 (이곡동, 성서보성화성타운)",,N,2,2,0,0,0,0,4,0,0,달서구청 경제지원과,,09:00~18:00,,35.85566195,128.5041217,민간,상업시설,수세식,없음,N,없음,,2020-08-31
194,공중화장실,해성병원,대구광역시 달서구 계대동문로 96 (이곡동),,N,2,2,0,0,0,0,2,0,0,달서구청 환경보호과,,09:00~18:00,,35.85510862,128.5028272,민간,기타,수세식,없음,N,없음,,2020-08-31
195,개방화장실,한성코아,"대구광역시 달서구 계대동문로 92 (이곡동, 한성코아)",,N,1,3,0,0,0,0,1,0,0,달서구청 환경보호과,,09:00~18:00,,35.85508749,128.5024992,민간,기타,수세식,없음,N,없음,,2020-08-31
196,개방화장실,이곡2동행정복지센터,"대구광역시 달서구 계대동문로 77 (이곡동, 이곡2동주민센터)",,N,8,8,0,0,0,0,8,1,0,이곡2동행정복지센터,,08:30~18:30,,35.85575426,128.500776,지방자치단체,공공용시설,수세식,,N,없음,,2020-08-31
197,개방화장실,보훈빌딩,대구광역시 달서구 계대동문로 126 (이곡동),,N,2,3,0,0,0,0,2,0,0,달서구청 환경보호과,,09:00~18:00,,35.85507314,128.506236,민간,기타,수세식,없음,N,없음,,2020-08-31
198,개방화장실,대신하이웰 빌딩,대구광역시 달서구 계대동문로 124 (이곡동),,N,1,2,0,0,0,0,2,1,0,달서구청 환경보호과,,09:00~18:00,,35.85508806,128.5059086,민간,기타,수세식,없음,N,없음,,2020-08-31
199,공중화장실,햇님공원,대구광역시 달서구 계대동문로 123,,N,1,1,0,0,0,0,1,0,0,이곡2동 행정복지센터,,09:00~18:00,,35.85578053,128.506453,지방자치단체,공공용시설,수세식,여자화장실,N,없음,,2020-08-31
200,개방화장실,구병원,"대구광역시 달서구 감삼북길 141 (감삼동, 구병원)",,N,2,2,0,0,0,0,2,1,0,달서구청 환경보호과,,09:00~18:00,,35.85068386,128.5413829,민간,기타,수세식,없음,N,없음,,2020-08-31
201,개방화장실,감삼동행정복지센터,"대구광역시 달서구 감삼북길 119-10 (감삼동, 감삼동행정복지센터)",,N,2,1,0,0,0,0,2,1,0,감삼동행정복지센터,,09:00~18:00,,35.85102331,128.5421776,지방자치단체,공공용시설,수세식,없음,N,없음,,2020-08-31
202,공중화장실,달서종합시장,"대구광역시 달서구 감삼길 79 (감삼동, 달서시장)",,Y,0,0,0,0,0,0,0,0,0,달서구청 경제지원과,,09:00~18:00,,35.85022668,128.5424588,민간,상업시설,수세식,없음,N,없음,,2020-08-31
203,개방화장실,구마충전소,대구광역시 달서구 구마로 67 (본리동),,Y,1,2,0,0,0,0,1,0,0,달서구청 환경보호과,,09:00~18:00,,35.837736,128.534795,민간,주유소·충전소,수세식,없음,N,없음,,2020-08-31
204,공중화장실,아토제2주유소,대구광역시 달서구 성서공단로 379 (장동),대구광역시 달서구 장동 774,N,2,1,0,0,0,0,2,0,0,달서구청 환경보호과,,상시,2020-09,35.501460,128.312777,민간,주유소·충전소,수세식,없음,N,없음,2020-09,2020-12-04
205,공중화장실,월촌공원,대구광역시 달서구 상인로 68-4,,N,2,3,0,0,0,0,3,1,0,달서구청 공원녹지과,,09:00~18:00,,35.81278487,128.5489521,지방자치단체,공공용시설,수세식,여자화장실,N,없음,,2020-08-31
206,개방화장실,살롱드미담 건물,대구광역시 달서구 이곡동로 74 (이곡동),,N,2,2,0,0,0,0,2,1,0,달서구청 환경보호과,,09:00~18:00,,35.85485972,128.5103143,민간,기타,수세식,없음,N,없음,,2020-08-31
207,개방화장실,한미병원,대구광역시 달서구 이곡동로 66 (이곡동),,N,1,0,0,0,0,0,1,0,0,달서구청 환경보호과,,09:00~18:00,,35.85483544,128.5113854,민간,기타,수세식,없음,N,없음,,2020-08-31
208,개방화장실,미광스포렉스,대구광역시 달서구 이곡동로 55 (이곡동),,N,1,3,0,0,0,0,3,0,0,달서구청 환경보호과,,09:00~18:00,,35.85432997,128.5123101,민간,기타,수세식,없음,N,없음,,2020-08-31
209,개방화장실,이마트 성서점 3층,대구광역시 달서구 이곡동로 24 (이곡동),,N,3,4,0,0,0,0,4,1,0,이마트 성서점 기술운영팀,,10:00~00:00,,35.85332957,128.5101702,민간,상업시설,수세식,없음,Y,여자화장실,,2020-08-31
210,개방화장실,이마트 성서점 1층,대구광역시 달서구 이곡동로 24 (이곡동),,N,3,3,0,0,0,0,7,1,1,이마트 성서점 기술운영팀,,10:00~00:00,,35.85332957,128.5101702,민간,상업시설,수세식,없음,Y,여자화장실,,2020-08-31
211,공중화장실,목련공원,대구광역시 달서구 이곡공원로1길 7,,N,1,1,0,0,0,0,1,0,0,이곡1동 행정복지센터,,09:00~18:00,,35.85572842,128.5083073,지방자치단체,공공용시설,수세식,여자화장실,N,없음,,2020-08-31
212,개방화장실,대구지방조달청,"대구광역시 달서구 이곡공원로 54 (이곡동, 지방조달청)",,N,11,9,0,0,0,0,9,0,0,대구지방조달청 경영관리과,,09:00~18:00,,35.85446351,128.5134417,지방자치단체,공공용시설,수세식,없음,N,없음,,2020-08-31
213,개방화장실,농협은행 성서지점,대구광역시 달서구 이곡공원로 46 (이곡동),,N,1,2,0,0,0,1,1,0,0,달서구청 환경보호과,,09:00~18:00,,35.85502105,128.5123896,민간,기타,수세식,없음,Y,없음,,2020-08-31
214,개방화장실,파티마정형외과,대구광역시 달서구 이곡공원로 42 (이곡동),,N,1,2,0,0,0,1,2,0,0,달서구청 환경보호과,,09:00~18:00,,35.85502867,128.5120709,민간,기타,수세식,없음,N,없음,,2020-08-31
215,개방화장실,대운빌딩,대구광역시 달서구 이곡공원로 36 (이곡동),,N,2,2,0,0,0,1,2,0,0,달서구청 환경보호과,,09:00~18:00,,35.85503714,128.5113981,민간,기타,수세식,없음,N,없음,,2020-08-31
216,개방화장실,성서중앙빌딩,대구광역시 달서구 이곡공원로 32 (이곡동),,N,2,3,0,0,0,1,2,1,0,달서구청 환경보호과,,09:00~18:00,,35.85496292,128.5109937,민간,기타,수세식,없음,N,없음,,2020-08-31
217,공중화장실,신세계주유소,대구광역시 달서구 이곡공원로 28 (이곡동),,N,2,2,0,0,0,0,2,0,0,달서구청 환경보호과,,09:00~18:00,,35.85496727,128.5106485,민간,주유소·충전소,수세식,없음,N,없음,,2020-08-31
218,개방화장실,이곡메디칼빌딩,대구광역시 달서구 이곡공원로 26 (이곡동),,N,2,1,0,0,0,1,2,1,0,달서구청 환경보호과,,09:00~18:00,,35.85506165,128.5103093,민간,기타,수세식,없음,N,없음,,2020-08-31
219,개방화장실,한유빌딩,대구광역시 달서구 이곡공원로 14 (이곡동),,N,1,2,0,0,0,0,1,1,0,달서구청 환경보호과,,09:00~18:00,,35.85498009,128.5090547,민간,기타,수세식,없음,N,없음,,2020-08-31
220,개방화장실,신아빌딩,대구광역시 달서구 이곡공원로 12 (이곡동),,N,1,3,0,0,0,0,1,0,0,달서구청 환경보호과,,09:00~18:00,,35.85499529,128.5087052,민간,기타,수세식,없음,N,없음,,2020-08-31
221,공중화장실,감천리공원,"대구광역시 달서구 월성로 77 (월성동, 월성주공아파트2단지)",,N,1,1,0,0,0,0,2,0,0,월성2동 행정복지센터,,09:00~18:00,,35.83004104,128.5283373,지방자치단체,공공용시설,수세식,여자화장실,N,없음,,2020-08-31
222,개방화장실,학산종합사회복지관 3층,"대구광역시 달서구 월성로 77 (월성동, 월성주공아파트2단지)",,N,2,3,0,0,0,0,2,1,0,학산종합사회복지관,,08:00~21:00,,35.83004104,128.5283373,지방자치단체,공공용시설,수세식,없음,N,없음,,2020-08-31
223,개방화장실,학산종합사회복지관 2층,"대구광역시 달서구 월성로 77 (월성동, 월성주공아파트2단지)",,N,2,3,0,0,0,0,2,1,0,학산종합사회복지관,,08:00~21:00,,35.83004104,128.5283373,지방자치단체,공공용시설,수세식,없음,N,없음,,2020-08-31
224,개방화장실,학산종합사회복지관 1층,"대구광역시 달서구 월성로 77 (월성동, 월성주공아파트2단지)",,N,4,3,0,0,0,0,3,1,0,학산종합사회복지관,,08:00~21:00,,35.83004104,128.5283373,지방자치단체,공공용시설,수세식,,N,없음,,2020-08-31
225,개방화장실,월성파출소,"대구광역시 달서구 월성로 69 (월성동, 월성2동파출소)",,Y,0,0,0,0,0,0,0,1,0,월성파출소,,00:00~23:50,,35.83079433,128.5280596,공공기관,공공용시설,수세식,없음,N,없음,,2020-08-31
226,개방화장실,월성파출소,"대구광역시 달서구 월성로 69 (월성동, 월성2동파출소)",,Y,0,0,0,0,0,0,0,1,0,월성파출소,,00:00~23:50,,35.83079433,128.5280596,공공기관,공공용시설,수세식,없음,N,없음,,2020-08-31
227,개방화장실,월성파출소,"대구광역시 달서구 월성로 69 (월성동, 월성2동파출소)",,Y,0,0,0,0,0,0,0,1,0,월성파출소,,00:00~23:50,,35.83079433,128.5280596,공공기관,공공용시설,수세식,없음,N,없음,,2020-08-31
228,개방화장실,월성2동행정복지센터,"대구광역시 달서구 월성로 65 (월성동, 월성2동행정복지센터)",,N,3,4,0,0,0,0,2,1,0,월성2동 행정복지센터,,09:00~18:00,,35.8309502,128.5282751,지방자치단체,공공용시설,수세식,,N,없음,,2020-08-31
229,공중화장실,미성공원,대구광역시 달서구 구마로14남길 55,,N,1,1,0,0,0,0,2,0,0,월성2동 행정복지센터,,09:00~18:00,,35.83192634,128.5331408,지방자치단체,공공용시설,수세식,여자화장실,N,없음,,2020-08-31
230,개방화장실,송현2동 행정복지센터 2층,"대구광역시 달서구 월배로83길 120-14 (송현동, 송현2동행정복지센터)",,Y,0,0,0,0,0,0,0,0,0,송현2동행정복지센터,,09:00~18:00,,35.83278706,128.5455827,지방자치단체,공공용시설,수세식,없음,N,없음,,2020-08-31
231,개방화장실,송현2동 행정복지센터 1층,"대구광역시 달서구 월배로83길 120-14 (송현동, 송현2동행정복지센터)",,Y,0,0,0,0,0,0,0,0,0,송현2동행정복지센터,,09:00~18:00,,35.83278706,128.5455827,지방자치단체,공공용시설,수세식,,N,없음,,2020-08-31
232,공중화장실,월배시장,"대구광역시 달서구 월배로24길 13 (진천동, 월배시장)",,N,2,2,0,0,0,0,3,1,0,달서구청 경제지원과,,09:00~18:00,,35.81407363,128.5273983,민간,상업시설,수세식,없음,N,없음,,2020-08-31
233,공중화장실,진천역,"대구광역시 달서구 월배로 지하 76 (진천동, 대구지하철1호선 진천역)",,N,4,8,0,0,0,0,6,1,0,대구도시철도공사 진천역,,05:20~00:00,,35.81389008,128.5231154,공공기관,교통시설,수세식,여자화장실,Y,여자화장실,,2020-08-31
234,공중화장실,송현역,"대구광역시 달서구 월배로 지하 412 (송현동, 대구지하철1호선 송현역)",,N,5,6,0,0,0,0,5,1,0,대구도시철도공사 송현역,,05:20~00:00,,35.83106752,128.5517463,공공기관,교통시설,수세식,여자화장실,Y,여자화장실,,2020-08-31
235,공중화장실,월촌역,"대구광역시 달서구 월배로 지하 311 (송현동, 대구지하철1호선 월촌역)",,N,4,7,0,0,0,0,4,1,0,대구도시철도공사 월촌역,,05:20~00:00,,35.82373343,128.5454912,공공기관,교통시설,수세식,여자화장실,N,여자화장실,,2020-08-31
236,개방화장실,상인3동행정복지센터 장애인전용,"대구광역시 달서구 상인로 25 (상인동, 상인3동행정복지센터)",,N,1,1,0,0,0,0,1,1,0,상인3동행정복지센터,,09:00~18:00,,35.81006531,128.5502003,지방자치단체,공공용시설,수세식,장애인화장실,N,없음,,2020-08-31
237,개방화장실,상인3동행정복지센터 2층,"대구광역시 달서구 상인로 25 (상인동, 상인3동행정복지센터)",,Y,0,0,0,0,0,0,0,0,0,상인3동행정복지센터,,09:00~18:00,,35.81006531,128.5502003,지방자치단체,공공용시설,수세식,없음,N,없음,,2020-08-31
238,개방화장실,상인3동행정복지센터 1층,"대구광역시 달서구 상인로 25 (상인동, 상인3동행정복지센터)",,N,1,3,0,0,0,0,1,0,0,상인3동행정복지센터,,09:00~18:00,,35.81006531,128.5502003,지방자치단체,공공용시설,수세식,,N,없음,,2020-08-31
239,개방화장실,상인3동치안센터,"대구광역시 달서구 상인로 21 (상인동, 상인3동치안센터)",,N,1,1,0,0,0,0,1,1,0,달서경찰서 상인지구대,,09:00~18:00,,35.80992322,128.550317,공공기관,공공용시설,수세식,없음,N,없음,,2020-08-31
240,공중화장실,월곡역사공원,대구광역시 달서구 상인로 128,,N,1,3,0,0,0,0,2,0,0,달서구청 공원녹지과,,09:00~18:00,,35.81798119,128.5445919,지방자치단체,공공용시설,수세식,여자화장실,N,없음,,2020-08-31
241,개방화장실,대구월배우체국,"대구광역시 달서구 상원로 97 (진천동, 월배우체국)",,N,1,1,0,0,0,0,0,0,0,대구월배우체국,,09:00~18:00,,35.81749899,128.5321375,국가,공공용시설,수세식,없음,N,없음,,2020-08-31
242,개방화장실,상인2동치안센터,"대구광역시 달서구 상원로 32 (상인동, 상인2동치안센터)",,Y,0,0,0,0,0,0,0,1,0,달서경찰 상인지구대,,09:00~18:00,,35.81283706,128.5367433,공공기관,공공용시설,수세식,없음,N,없음,,2020-08-31
243,공중화장실,월배공원,대구광역시 달서구 상원로 32,,N,2,3,0,0,0,0,4,1,0,달서구청 공원녹지과,,09:00~18:00,,35.81283706,128.5367433,지방자치단체,공공용시설,수세식,여자화장실,N,여자화장실,,2020-08-31
244,개방화장실,상인2동행정복지센터 3층,"대구광역시 달서구 상원로 27 (상인동, 상인2동행정복지센터)",,N,1,2,0,0,0,0,2,0,0,상인2동행정복지센터,,09:00~18:00,,35.81255487,128.5362599,지방자치단체,공공용시설,수세식,없음,N,없음,,2020-08-31
245,개방화장실,상인2동행정복지센터 2층,"대구광역시 달서구 상원로 27 (상인동, 상인2동행정복지센터)",,N,1,2,0,0,0,0,0,0,0,상인2동행정복지센터,,09:00~18:00,,35.81255487,128.5362599,지방자치단체,공공용시설,수세식,없음,N,없음,,2020-08-31
246,개방화장실,상인2동행정복지센터 1층,"대구광역시 달서구 상원로 27 (상인동, 상인2동행정복지센터)",,N,1,2,0,0,0,0,0,1,0,상인2동행정복지센터,,09:00~18:00,,35.81255487,128.5362599,지방자치단체,공공용시설,수세식,없음,N,없음,,2020-08-31
247,공중화장실,대곡역,"대구광역시 달서구 비슬로 지하 2718 (대곡동, 대구지하철1호선 대곡역)",,N,3,6,0,0,0,0,8,1,0,대구도시철도공사 대곡역,,05:20~00:00,,35.80943921,128.512485,공공기관,교통시설,수세식,여자화장실,Y,여자화장실,,2020-08-31
248,공중화장실,하나로2주유소,대구광역시 달서구 비슬로 2682 (대곡동),,Y,0,0,0,0,0,0,0,0,0,달서구청 환경보호과,,09:00~18:00,,35.80767304,128.5090352,민간,주유소·충전소,수세식,없음,N,없음,,2020-08-31
249,공중화장실,도원공원,대구광역시 달서구 미리샘길 26,,N,2,2,0,0,0,0,2,1,0,달서구청 공원녹지과,,09:00~18:00,,35.80626098,128.5435905,지방자치단체,공공용시설,수세식,여자화장실,N,여자화장실,,2020-08-31
250,개방화장실,웃는얼굴아트센터 별관 2층,"대구광역시 달서구 문화회관길 160 (장기동, 웃는얼굴아트센터)",,N,2,2,0,0,0,0,3,0,0,웃는얼굴아트센터 운영지원팀,,06:50~21:30,,35.84285866,128.5221241,지방자치단체,공공용시설,수세식,없음,N,없음,,2020-08-31
251,개방화장실,웃는얼굴아트센터 별관 1층,"대구광역시 달서구 문화회관길 160 (장기동, 웃는얼굴아트센터)",,N,3,2,0,0,0,0,4,1,0,웃는얼굴아트센터 운영지원팀,,06:50~21:30,,35.84285866,128.5221241,지방자치단체,공공용시설,수세식,없음,N,없음,,2020-08-31
252,개방화장실,웃는얼굴아트센터 별관 지하1층,"대구광역시 달서구 문화회관길 160 (장기동, 웃는얼굴아트센터)",,N,3,2,0,0,0,0,3,0,0,웃는얼굴아트센터 운영지원팀,,06:50~21:30,,35.84285866,128.5221241,지방자치단체,공공용시설,수세식,없음,N,없음,,2020-08-31
253,개방화장실,웃는얼굴아트센터 본관 3층,"대구광역시 달서구 문화회관길 160 (장기동, 웃는얼굴아트센터)",,N,2,3,0,0,0,0,3,1,0,웃는얼굴아트센터 운영지원팀,,05:00~22:30,,35.84285866,128.5221241,지방자치단체,공공용시설,수세식,없음,N,없음,,2020-08-31
254,개방화장실,웃는얼굴아트센터 본관 2층,"대구광역시 달서구 문화회관길 160 (장기동, 웃는얼굴아트센터)",,N,3,3,0,0,0,0,4,0,0,웃는얼굴아트센터 운영지원팀,,05:00~22:30,,35.84285866,128.5221241,지방자치단체,공공용시설,수세식,없음,N,없음,,2020-08-31
255,개방화장실,웃는얼굴아트센터 본관 1층,"대구광역시 달서구 문화회관길 160 (장기동, 웃는얼굴아트센터)",,N,3,3,0,0,0,0,4,1,0,웃는얼굴아트센터 운영지원팀,,05:00~22:30,,35.84285866,128.5221241,지방자치단체,공공용시설,수세식,없음,N,없음,,2020-08-31
256,개방화장실,웃는얼굴아트센터 생활문화센터,"대구광역시 달서구 문화회관길 160 (장기동, 웃는얼굴아트센터)",,N,2,3,0,0,0,0,2,0,0,웃는얼굴아트센터 운영지원팀,,05:00~18:00,,35.84285866,128.5221241,지방자치단체,공공용시설,수세식,없음,N,없음,,2020-08-31
257,개방화장실,웃는얼굴아트센터 본관 청룡홀 로비,"대구광역시 달서구 문화회관길 160 (장기동, 웃는얼굴아트센터)",,N,2,3,0,0,0,0,7,0,0,웃는얼굴아트센터 운영지원팀,,05:00~22:30,,35.84285866,128.5221241,지방자치단체,공공용시설,수세식,없음,N,없음,,2020-08-31
258,공중화장실,상화주유소,대구광역시 달서구 명천로 28 (대곡동),,Y,0,0,0,0,0,0,0,0,0,달서구청 환경보호과,,09:00~18:00,,35.80701947,128.5122798,민간,주유소·충전소,수세식,없음,N,없음,,2020-08-31
259,공중화장실,서대구시장,"대구광역시 달서구 명덕로2길 30 (두류동, 서대구시장)",,Y,0,0,0,0,0,0,0,0,0,달서구청 경제지원과,,09:00~18:00,,35.86059904,128.5706851,민간,상업시설,수세식,없음,N,없음,,2020-08-31
260,개방화장실,달서구도시재생지원센터,"대구광역시 달서구 두류길 141 (두류동, 두류1,2동현장민원실)",,N,0,1,0,0,0,0,0,1,0,도시재생과,,09:00~18:00,,35.85809508,128.5672793,지방자치단체,공공용시설,수세식,없음,Y,없음,,2020-08-31
261,개방화장실,제일화재빌딩,대구광역시 달서구 두류공원로 269 (두류동),,N,2,2,0,0,0,0,2,0,0,달서구청 환경보호과,,09:00~18:00,,35.85699307,128.557503,민간,기타,수세식,없음,N,없음,,2020-08-31
262,개방화장실,국민건강보험공단 대구경북본부,"대구광역시 달서구 두류공원로 264 (두류동, 국민건강보험공단대구달서지사)",,N,2,3,0,0,0,0,2,1,0,국민건강보험공단 대구지역본부,,09:00~18:00,,35.85706853,128.5583546,공공기관,공공용시설,수세식,,N,없음,,2020-08-31
263,공중화장실,대구가스충전소,대구광역시 달서구 두류공원로 127 (성당동),,N,1,3,0,0,0,0,1,1,0,달서구청 환경보호과,,09:00~18:00,,35.84710502,128.5661465,민간,주유소·충전소,수세식,없음,N,없음,,2020-08-31
264,개방화장실,도원119안전센터,"대구광역시 달서구 도원로 8 (도원동, 도원119안전센터)",,Y,0,0,0,0,0,0,0,0,0,도원119안전센터,,09:00~18:00,,35.80900515,128.5356295,국가,공공용시설,수세식,없음,N,없음,,2020-08-31
265,공중화장실,상인역,"대구광역시 달서구 월배로 지하 223 (상인동, 대구지하철1호선 상인역)",,N,4,8,0,0,0,0,4,1,0,대구도시철도공사 상인역,,05:20~00:00,,35.81895019,128.5378968,공공기관,교통시설,수세식,여자화장실,Y,여자화장실,,2020-08-31
266,공중화장실,월배역,"대구광역시 달서구 월배로 지하 143 (진천동, 대구지하철1호선 월배역)",,N,4,7,0,0,0,0,4,1,0,대구도시철도공사 월배역,,05:20~00:00,,35.81614147,128.5303279,공공기관,교통시설,수세식,여자화장실,Y,없음,,2020-08-31
267,공중화장실,신도주유소,대구광역시 달서구 월배로 94 (진천동),,Y,1,0,0,0,0,0,0,0,0,달서구청 환경보호과,,09:00~18:00,,35.81403961,128.5249681,민간,주유소·충전소,수세식,없음,N,없음,,2020-08-31
268,공중화장실,스마일주유소,대구광역시 달서구 월배로 8 (진천동),,Y,0,0,0,0,0,0,0,0,0,달서구청 환경보호과,,09:00~18:00,,35.81082991,128.5168305,민간,주유소·충전소,수세식,,N,없음,,2020-08-31
269,공중화장실,관문셀프주유소,대구광역시 달서구 월배로 439 (송현동),,N,1,2,0,0,0,0,1,0,0,달서구청 환경보호과,,09:00~18:00,,35.83310213,128.5532954,민간,주유소·충전소,수세식,,N,없음,,2020-08-31
270,개방화장실,송현효병원,"대구광역시 달서구 월배로 384 (송현동, 송현효병원)",,N,2,2,0,0,0,0,2,1,0,달서구청 환경보호과,,09:00~18:00,,35.82874721,128.550267,민간,기타,수세식,없음,N,없음,,2020-08-31
271,개방화장실,송현1동치안센터,"대구광역시 달서구 월배로 382 (송현동, 송현1동치안센터)",,Y,0,0,0,0,0,0,0,0,0,달서경찰서 송현지구대,,09:00~18:00,,35.82865597,128.5500749,공공기관,공공용시설,수세식,없음,N,없음,,2020-08-31
272,공중화장실,창경주유소,대구광역시 달서구 월배로 372 (송현동),,N,1,1,0,0,0,0,1,0,0,달서구청 환경보호과,,09:00~18:00,,35.82779896,128.5494474,민간,주유소·충전소,수세식,없음,N,없음,,2020-08-31
273,개방화장실,송현119안전센터,"대구광역시 달서구 월배로 262 (상인동, 송현119안전센터)",,N,1,1,0,0,0,0,1,1,0,송현119안전센터,,09:00~18:00,,35.82002548,128.5420291,국가,공공용시설,수세식,없음,N,없음,,2020-08-31
274,공중화장실,구마선self오일뱅크,대구광역시 달서구 월배로 255 (상인동),,N,0,0,0,0,0,0,0,0,0,달서구청 환경보호과,,09:00~18:00,,35.82017559,128.5410052,민간,주유소·충전소,수세식,없음,N,없음,,2020-08-31
275,개방화장실,성모여성병원,"대구광역시 달서구 월배로 204 (상인동, 성모여성병원)",,N,1,1,0,0,0,0,2,1,0,달서구청 환경보호과,,09:00~18:00,,35.81809419,128.5360569,민간,기타,수세식,없음,N,없음,,2020-08-31
276,공중화장실,상인주유소,대구광역시 달서구 월배로 200 (상인동),,N,1,2,0,0,0,0,1,0,0,달서구청 환경보호과,,09:00~18:00,,35.81793588,128.5354696,민간,주유소·충전소,수세식,없음,N,없음,,2020-08-31
277,개방화장실,상인홈플러스 2층,"대구광역시 달서구 월배로 183 (상인동, 상인 대성 스카이렉스)",,N,3,4,0,0,0,0,7,1,1,홈플러스 상인점,,10:00~00:00,,35.81827953,128.5325508,민간,상업시설,수세식,없음,N,여자화장실,,2020-08-31
278,개방화장실,상인홈플러스 롯데리아,"대구광역시 달서구 월배로 183 (상인동, 상인 대성 스카이렉스)",,N,3,4,0,0,0,0,7,1,1,홈플러스 상인점,,10:00~00:00,,35.81827953,128.5325508,민간,상업시설,수세식,없음,Y,여자화장실,,2020-08-31
279,개방화장실,상인홈플러스 문화센터,"대구광역시 달서구 월배로 183 (상인동, 상인 대성 스카이렉스)",,N,1,2,0,0,0,0,3,0,0,홈플러스 상인점,,10:00~00:00,,35.81827953,128.5325508,민간,상업시설,수세식,없음,N,없음,,2020-08-31
280,개방화장실,유천치안센터,"대구광역시 달서구 월배로 16 (진천동, 유천치안센터)",,Y,0,0,0,0,0,0,0,0,0,달서경찰서 월배지구대,,09:00~18:00,,35.81143653,128.51732,공공기관,공공용시설,수세식,없음,N,없음,,2020-08-31
281,개방화장실,월배지구대,"대구광역시 달서구 월배로 108 (진천동, 월배지구대)",,N,1,1,0,0,0,0,1,1,0,달서경찰서 월배지구대,,00:00~23:50,,35.81420554,128.5263786,공공기관,공공용시설,수세식,없음,N,없음,,2020-08-31
282,개방화장실,보강병원,대구광역시 달서구 월배로 102 (진천동),,N,2,3,0,0,0,0,3,1,0,달서구청 환경보호과,,09:00~18:00,,35.81345941,128.5252402,민간,기타,수세식,없음,N,없음,,2020-08-31
283,개방화장실,신라병원,대구광역시 달서구 월배로 10 (진천동),,N,1,2,0,0,0,0,0,0,0,달서구청 환경보호과,,09:00~18:00,,35.81104491,128.5169319,민간,기타,수세식,없음,N,없음,,2020-08-31
284,공중화장실,옹달샘공원,대구광역시 달서구 학산로7길 39,,N,1,1,0,0,0,0,2,0,0,월성2동 행정복지센터,,09:00~18:00,,35.83157511,128.5298717,공공기관,공공용시설,수세식,여자화장실,N,없음,,2020-08-31
285,공중화장실,학산공원,대구광역시 달서구 월곡로94길 28,,N,2,1,0,0,0,0,2,0,0,월성1동 행정복지센터,,09:00~18:00,,35.83379809,128.5265546,지방자치단체,공공용시설,수세식,여자화장실,N,없음,,2020-08-31
286,공중화장실,서광공원,대구광역시 달서구 상인서로 3,,N,1,3,0,0,0,0,1,0,0,상인3동 행정복지센터,,09:00~18:00,,35.81139501,128.5471549,지방자치단체,공공용시설,수세식,여자화장실,N,없음,,2020-08-31
287,공중화장실,채정공원,대구광역시 달서구 월곡로26안길 27,,N,1,3,0,0,0,0,1,0,0,상인3동 행정복지센터,,09:00~18:00,,35.80967084,128.5500421,지방자치단체,공공용시설,수세식,여자화장실,N,없음,,2020-08-31
288,공중화장실,은행공원,대구광역시 달서구 월곡로20길 17,,N,1,3,0,0,0,0,1,0,0,상인3동 행정복지센터,,09:00~18:00,,35.80612836,128.5513716,지방자치단체,공공용시설,수세식,여자화장실,N,없음,,2020-08-31
289,개방화장실,대구보훈병원,"대구광역시 달서구 월곡로 60 (도원동, 대구보훈병원)",,N,0,1,0,0,0,0,0,1,0,달서구청 환경보호과,,09:00~18:00,,35.80282935,128.5517101,민간,기타,수세식,없음,N,없음,,2020-08-31
290,공중화장실,월광수변공원1,대구광역시 달서구 월곡로 5,,N,2,2,0,0,0,0,3,1,0,달서구청 공원녹지과,,09:00~18:00,,35.79880747,128.5482868,지방자치단체,공공용시설,수세식,여자화장실,N,없음,,2020-08-31
291,공중화장실,용산역,"대구광역시 달서구 달구벌대로 지하 1476 (용산동, 대구지하철2호선 용산역)",,N,6,10,0,0,0,0,16,0,1,대구도시철도공사 용산역,,05:20~00:00,,35.84896464,128.5283905,공공기관,교통시설,수세식,여자화장실,Y,여자화장실,,2020-08-31
292,공중화장실,이곡역,"대구광역시 달서구 달구벌대로 지하 1357 (이곡동, 대구지하철2호선 이곡역)",,N,3,4,0,0,0,0,7,1,0,대구도시철도공사 이곡역,,05:20~00:00,,35.85062048,128.5157684,공공기관,교통시설,수세식,여자화장실,Y,여자화장실,,2020-08-31
293,공중화장실,성서산업단지역,"대구광역시 달서구 달구벌대로 지하 1280 (이곡동, 대구지하철2호선 성서산업단지역)",,N,4,8,0,0,0,0,13,1,0,대구도시철도공사,,05:20~00:00,,35.8517297,128.507253,공공기관,교통시설,수세식,여자화장실,Y,여자화장실,,2020-08-31
294,공중화장실,계명대역,"대구광역시 달서구 달구벌대로 지하 1140 (신당동, 대구지하철2호선 계명대역)",,N,4,5,0,0,0,0,9,1,1,대구도시철도공사 계명대역,,05:20~00:00,,35.85150585,128.491978,공공기관,교통시설,수세식,여자화장실,Y,없음,,2020-08-31
295,개방화장실,대구도원동우체국,"대구광역시 달서구 도원로 6 (도원동, 도원동우체국)",,N,1,1,0,0,0,0,1,0,0,대구도원동우체국,,09:00~18:00,,35.80916698,128.5356592,국가,공공용시설,수세식,없음,N,없음,,2020-08-31
296,개방화장실,본리119안전센터,대구광역시 달서구 대명천로 134 (본리동),,N,1,1,0,0,0,0,1,1,0,본리119안전센터,,09:00~18:00,,35.83969266,128.545088,국가,공공용시설,수세식,없음,N,없음,,2020-08-31
297,개방화장실,서대구세무서,"대구광역시 달서구 당산로38길 33 (두류동, 서대구세무서)",,N,12,12,0,0,0,0,24,1,0,서대구세무서 업무지원팀,,09:00~18:00,,35.85398654,128.5502801,국가,공공용시설,수세식,없음,N,없음,,2020-08-31
298,개방화장실,본리도서관,"대구광역시 달서구 당산로 37-25 (본리동, 본리도서관)",,N,6,7,0,0,0,0,11,1,1,달서구청 도서관과,,09:00~20:00,,35.84056015,128.5418156,지방자치단체,공공용시설,수세식,여자화장실,N,없음,,2020-08-31
299,공중화장실,본리공원,대구광역시 달서구 당산로 37-25,,N,2,3,0,0,0,0,3,1,0,본리동 행정복지센터,,09:00~18:00,,35.84056015,128.5418156,지방자치단체,공공용시설,수세식,여자화장실,N,없음,,2020-08-31
300,개방화장실,본리동행정복지센터,"대구광역시 달서구 당산로 37-14 (본리동, 본리동주민센터, 본리종합사회복지관)",,N,2,2,0,0,0,0,4,1,0,본리동주민센터,,09:00~18:00,,35.84101503,128.5431658,지방자치단체,공공용시설,수세식,,Y,없음,,2020-08-31
301,개방화장실,대구본리동우체국,"대구광역시 달서구 당산로 36 (본리동, 본리동우체국)",,Y,0,0,0,0,0,0,0,0,0,대구본리동우체국,,09:00~18:00,,35.84060926,128.5450084,국가,공공용시설,수세식,없음,N,없음,,2020-08-31
302,공중화장실,달서시장,"대구광역시 달서구 당산로 35 (본리동, 달서종합상가)",,N,4,3,0,0,0,0,5,1,0,달서구청 경제지원과,,09:00~18:00,,35.84019375,128.5442434,민간,상업시설,수세식,여자화장실,Y,없음,,2020-08-31
303,개방화장실,SK텔레콤,대구광역시 달서구 당산로 32 (본리동),,N,4,4,0,0,0,0,2,0,0,달서구청 환경보호과,,09:00~18:00,,35.84013288,128.5450523,민간,기타,수세식,없음,N,없음,,2020-08-31
304,공중화장실,국가대표주유소,대구광역시 달서구 당산로 104 (성당동),,Y,0,0,0,0,0,0,0,0,0,달서구청 환경보호과,,09:00~18:00,,35.84654262,128.5449951,민간,주유소·충전소,수세식,없음,N,없음,,2020-08-31
305,공중화장실,두류종합시장,"대구광역시 달서구 당산동길 9 (성당동, 두류종합상가)",,N,1,1,0,0,0,0,2,1,0,달서구청 경제지원과,,09:00~18:00,,35.84549178,128.545143,민간,상업시설,수세식,없음,N,없음,,2020-08-31
306,개방화장실,대천119안전센터,"대구광역시 달서구 달서대로58길 129 (대천동, 대천119안전센터)",,Y,0,0,0,0,0,0,0,0,0,대천119안전센터,,09:00~18:00,,35.8249536,128.5067465,국가,공공용시설,수세식,없음,N,없음,,2020-08-31
307,공중화장실,호산공원,대구광역시 달서구 달서대로109길 70,,N,2,4,0,0,0,0,5,0,0,신당동 행정복지센터,,09:00~18:00,,35.84898495,128.4839303,지방자치단체,공공용시설,수세식,여자화장실,N,없음,,2020-08-31
308,공중화장실,대영주유소,대구광역시 달서구 달서대로 84 (유천동),,N,1,1,0,0,0,0,1,0,0,달서구청 환경보호과,,09:00~18:00,,35.81532962,128.5084366,민간,주유소·충전소,수세식,없음,N,없음,,2020-08-31
309,공중화장실,아리랑주유소,대구광역시 달서구 달서대로 696 (신당동),,N,0,0,0,0,0,0,0,0,0,달서구청 환경보호과,,09:00~18:00,,35.86169532,128.4926251,민간,주유소·충전소,수세식,없음,N,없음,,2020-08-31
310,공중화장실,월배이레주유소,대구광역시 달서구 달서대로 58 (유천동),,Y,0,0,0,0,0,0,0,0,0,달서구청 환경보호과,,09:00~18:00,,35.81406195,128.5109264,민간,주유소·충전소,수세식,없음,N,없음,,2020-08-31
311,공중화장실,해뜨는주유소,대구광역시 달서구 달서대로 46 (유천동),,N,0,0,0,0,0,0,0,0,0,달서구청 환경보호과,,09:00~18:00,,35.8133713,128.5122453,민간,주유소·충전소,수세식,없음,N,없음,,2020-08-31
312,공중화장실,공단제일주유소,대구광역시 달서구 달서대로 455 (호산동),,N,1,2,0,0,0,0,2,0,0,달서구청 환경보호과,,09:00~18:00,,35.84002743,128.4914973,민간,주유소·충전소,수세식,없음,N,없음,,2020-08-31
313,공중화장실,대림공단주유소,대구광역시 달서구 달서대로 403 (호림동),,N,1,2,0,0,0,0,1,0,0,달서구청 환경보호과,,09:00~18:00,,35.83521986,128.491124,민간,주유소·충전소,수세식,없음,N,없음,,2020-08-31
314,개방화장실,㈜대천에너지,대구광역시 달서구 달서대로 109 (대천동),,N,2,3,0,0,0,0,2,0,0,달서구청 환경보호과,,09:00~18:00,,35.81559999,128.505273,민간,주유소·충전소,수세식,없음,N,없음,,2020-08-31
315,공중화장실,대천대성주유소,대구광역시 달서구 달서대로 101 (대천동),,N,0,0,0,0,0,0,0,0,0,달서구청 환경보호과,,09:00~18:00,,35.81576144,128.5059089,민간,주유소·충전소,수세식,없음,N,없음,,2020-08-31
316,공중화장실,서남시장,대구광역시 달서구 달구벌대로329길 17 (감삼동),,N,2,2,0,0,0,0,4,1,0,달서구청 경제지원과,,09:00~18:00,,35.85436593,128.5451735,민간,상업시설,수세식,여자화장실,N,없음,,2020-08-31
317,공중화장실,서남신시장,대구광역시 달서구 달구벌대로329길 32,,N,4,4,0,0,0,0,9,1,0,달서구청 경제지원과,,09:00~18:00,,35.8550704,128.5456122,민간,상업시설,수세식,여자화장실,Y,여자화장실,,2020-08-31
318,공중화장실,죽전시장,대구광역시 달서구 달구벌대로305길 24 (죽전동),,N,2,1,0,0,0,0,3,0,0,달서구청 경제지원과,,09:00~18:00,,35.85102308,128.5340309,민간,상업시설,수세식,없음,N,없음,,2020-08-31
319,개방화장실,시각장애인 복지관 5층,대구광역시 달서구 달구벌대로291길 100 (용산동),,N,1,1,0,0,0,0,2,1,0,대구시각장애인복지관,,09:00~18:00,,35.85354733,128.5254588,지방자치단체,공공용시설,수세식,없음,N,없음,,2020-08-31
320,개방화장실,시각장애인 복지관 4층,대구광역시 달서구 달구벌대로291길 100 (용산동),,N,1,2,0,0,0,0,3,0,0,대구시각장애인복지관,,09:00~18:00,,35.85354733,128.5254588,지방자치단체,공공용시설,수세식,없음,N,없음,,2020-08-31
321,개방화장실,시각장애인 복지관 3층,대구광역시 달서구 달구벌대로291길 100 (용산동),,N,1,2,0,0,0,0,3,0,0,대구시각장애인복지관,,09:00~18:00,,35.85354733,128.5254588,지방자치단체,공공용시설,수세식,없음,N,없음,,2020-08-31
322,개방화장실,시각장애인 복지관 2층,대구광역시 달서구 달구벌대로291길 100 (용산동),,N,1,2,0,0,0,0,3,0,0,대구시각장애인복지관,,09:00~18:00,,35.85354733,128.5254588,지방자치단체,공공용시설,수세식,없음,N,없음,,2020-08-31
323,개방화장실,시각장애인 복지관 1층,대구광역시 달서구 달구벌대로291길 100 (용산동),,N,1,2,0,0,0,0,3,0,0,대구시각장애인복지관,,09:00~18:00,,35.85354733,128.5254588,지방자치단체,공공용시설,수세식,없음,N,없음,,2020-08-31
324,개방화장실,청각언어 장애인복지관 5층,대구광역시 달서구 달구벌대로291길 100 (용산동),,N,1,1,0,0,0,0,2,1,0,대구청각언어장애인복지관,,09:00~18:00,,35.85354733,128.5254588,지방자치단체,공공용시설,수세식,여자화장실,N,없음,,2020-08-31
325,개방화장실,청각언어 장애인복지관 4층,대구광역시 달서구 달구벌대로291길 100 (용산동),,N,1,2,0,0,0,0,3,0,0,대구청각언어장애인복지관,,09:00~18:00,,35.85354733,128.5254588,지방자치단체,공공용시설,수세식,,N,없음,,2020-08-31
326,공중화장실,강창역,"대구광역시 달서구 달구벌대로 지하 1014 (호산동, 대구지하철2호선 강창역)",,N,4,4,0,0,0,0,7,1,1,대구도시철도공사 강창역,,05:20~00:00,,35.85307661,128.4783435,공공기관,교통시설,수세식,여자화장실,Y,여자화장실,,2020-08-31
327,개방화장실,삼익신협,대구광역시 달서구 달구벌대로 1862 (두류동),,N,1,1,0,0,0,0,1,0,0,달서구청 환경보호과,,09:00~18:00,,35.86078891,128.5685678,민간,기타,수세식,없음,N,없음,,2020-08-31
328,개방화장실,성안오피스텔,"대구광역시 달서구 달구벌대로 1834 (두류동, 성안오피스텔건물)",,N,1,2,0,0,0,0,2,0,0,달서구청 환경보호과,,09:00~18:00,,35.8599183,128.5653979,민간,기타,수세식,없음,Y,없음,,2020-08-31
329,개방화장실,현대해상,"대구광역시 달서구 달구벌대로 1790 (두류동, 현대해상빌딩)",,N,2,3,0,0,0,0,2,1,0,달서구청 환경보호과,,09:00~18:00,,35.85855796,128.560797,민간,기타,수세식,없음,Y,없음,,2020-08-31
330,개방화장실,교보생명,대구광역시 달서구 달구벌대로 1780 (두류동),,N,2,2,0,0,0,0,2,0,0,달서구청 환경보호과,,09:00~18:00,,35.85821237,128.5596523,민간,기타,수세식,없음,N,없음,,2020-08-31
331,개방화장실,대구기독병원,대구광역시 달서구 달구벌대로 1750 (두류동),,N,1,2,0,0,0,0,2,0,0,달서구청 환경보호과,,09:00~18:00,,35.85702656,128.556866,민간,기타,수세식,없음,N,없음,,2020-08-31
332,개방화장실,지산빌딩,대구광역시 달서구 달구벌대로 1690 (두류동),,N,2,1,0,0,0,0,2,0,0,달서구청 환경보호과,,09:00~18:00,,35.85493409,128.5508742,민간,기타,수세식,없음,N,없음,,2020-08-31
333,개방화장실,수송타워,대구광역시 달서구 달구벌대로 1686 (두류동),,N,2,2,0,0,0,0,2,1,0,달서구청 환경보호과,,09:00~18:00,,35.85480927,128.550491,민간,기타,수세식,없음,N,없음,,2020-08-31
334,개방화장실,감삼빌딩,대구광역시 달서구 달구벌대로 1680 (두류동),,N,1,2,0,0,0,0,3,0,0,달서구청 환경보호과,,09:00~18:00,,35.85450381,128.5498607,민간,기타,수세식,없음,N,없음,,2020-08-31
335,개방화장실,W병원,"대구광역시 달서구 달구벌대로 1632 (감삼동, 더블유(W)병원)",,N,2,3,0,0,0,0,4,0,0,달서구청 환경보호과,,09:00~18:00,,35.85264198,128.5449674,민간,기타,수세식,없음,N,없음,,2020-08-31
336,개방화장실,대기에너지(주)서남점,대구광역시 달서구 달구벌대로 1631 (감삼동),,Y,0,0,0,0,0,0,0,0,0,달서구청 환경보호과,,09:00~18:00,,35.85353636,128.5446526,민간,주유소·충전소,수세식,없음,N,없음,,2020-08-31
337,개방화장실,감삼파출소,"대구광역시 달서구 달구벌대로 1606 (감삼동, 감삼치안센터)",,N,1,1,0,0,0,0,1,1,0,감삼파출소,,00:00~23:50,,35.8517527,128.54236,국가,공공용시설,수세식,없음,Y,없음,,2020-08-31
338,개방화장실,서대구대동병원,"대구광역시 달서구 달구벌대로 1577 (죽전동, 서대구 대동병원)",,N,2,2,0,0,0,0,2,1,0,달서구청 환경보호과,,09:00~18:00,,35.85129053,128.539048,민간,기타,수세식,없음,N,없음,,2020-08-31
339,개방화장실,FM치과병원,대구광역시 달서구 달구벌대로 1565 (죽전동),,N,1,2,0,0,0,0,1,0,0,달서구청 환경보호과,,09:00~18:00,,35.85088786,128.5378404,민간,기타,수세식,없음,N,없음,,2020-08-31
340,개방화장실,죽전메디빌,대구광역시 달서구 달구벌대로 1542 (감삼동),,N,3,4,0,0,0,0,3,1,0,달서구청 환경보호과,,09:00~18:00,,35.84956325,128.5357206,민간,기타,수세식,없음,N,없음,,2020-08-31
341,공중화장실,웰컴주유소,대구광역시 달서구 달구벌대로 1536 (감삼동),,N,1,1,0,0,0,0,1,0,0,달서구청 환경보호과,,09:00~18:00,,35.84952708,128.5351665,민간,주유소·충전소,수세식,없음,N,없음,,2020-08-31
342,개방화장실,향군회관,대구광역시 달서구 달구벌대로 1491 (용산동),,N,2,3,0,0,0,0,2,1,0,달서구청 환경보호과,,09:00~18:00,,35.84962749,128.5301211,민간,기타,수세식,없음,N,없음,,2020-08-31
343,개방화장실,홈플러스 성서점 지하2층,대구광역시 달서구 달구벌대로 1467 (용산동),,N,4,6,0,0,0,0,10,1,0,홈플러스 성서점,,10:00~00:00,,35.84945295,128.5274081,민간,상업시설,수세식,없음,N,없음,,2020-08-31
344,개방화장실,홈플러스 성서점 지하1층,대구광역시 달서구 달구벌대로 1467 (용산동),,N,3,4,0,0,0,0,7,1,1,홈플러스 성서점,,10:00~00:00,,35.84945295,128.5274081,민간,상업시설,수세식,없음,N,없음,,2020-08-31
345,공중화장실,장기주유소,대구광역시 달서구 달구벌대로 1374 (장기동),,N,0,2,0,0,0,0,0,0,0,달서구청 환경보호과,,09:00~18:00,,35.85015595,128.5177298,민간,주유소·충전소,수세식,없음,N,없음,,2020-08-31
346,개방화장실,성서파출소,"대구광역시 달서구 달구벌대로 1327 (이곡동, 성서파출소)",,N,2,2,0,0,0,0,1,0,0,성서파출소,,09:00~18:00,,35.85121214,128.5125829,공공기관,공공용시설,수세식,없음,N,없음,,2020-08-31
347,개방화장실,이곡1동행정복지센터,"대구광역시 달서구 달구벌대로 1309 (이곡동, 이곡1동주민센터)",,N,1,0,0,0,0,0,1,1,0,이곡1동주민센터,,09:00~18:00,,35.85164725,128.5106607,지방자치단체,공공용시설,수세식,,N,없음,,2020-08-31
348,공중화장실,화물터미널주유소,대구광역시 달서구 성서공단로 346 (월성동),,N,1,2,0,0,0,0,1,0,0,달서구청 환경보호과,,09:00~18:00,,35.83633903,128.5203262,민간,주유소·충전소,수세식,없음,N,없음,,2020-08-31
349,개방화장실,남대구IC충전소,대구광역시 달서구 성서공단로 319 (장동),,N,0,2,0,0,0,0,1,0,0,달서구청 환경보호과,,09:00~18:00,,35.83693808,128.5179914,민간,주유소·충전소,수세식,없음,N,없음,,2020-08-31
350,개방화장실,대구성서공단우체국,"대구광역시 달서구 성서공단로 118 (월암동, 성서공단우체국)",,N,1,1,0,0,0,0,1,0,0,대구성서공단우체국,,09:00~18:00,,35.83481086,128.4956095,국가,공공용시설,수세식,없음,N,없음,,2020-08-31
351,개방화장실,구상에너지,대구광역시 달서구 성서4차첨단로 184 (월암동),,N,0,0,0,0,0,0,0,0,0,달서구청 환경보호과,,09:00~18:00,,35.82952847,128.5187267,민간,주유소·충전소,수세식,없음,N,없음,,2020-08-31
352,공중화장실,구상주유소,대구광역시 달서구 성서4차첨단로 180 (월암동),,N,0,0,0,0,0,0,0,0,0,달서구청 환경보호과,,09:00~18:00,,35.82930616,128.5180629,민간,주유소·충전소,수세식,없음,N,없음,,2020-08-31
353,개방화장실,두류1.2동행정복지센터,"대구광역시 달서구 성당로51길 32 (두류동, 두류1,2동행정복지센터)",,Y,0,0,0,0,0,0,0,0,0,두류1.2동행정복지센터,,09:00~18:00,,35.8556914,128.5722,지방자치단체,공공용시설,수세식,,N,없음,,2020-08-31
354,개방화장실,대구두류동우체국,"대구광역시 달서구 성당로 247 (두류동, 두류1동우체국)",,N,1,2,0,0,0,0,1,0,0,대구두류동우체국,,09:00~18:00,,35.85435298,128.5736613,국가,공공용시설,수세식,없음,N,없음,,2020-08-31
355,개방화장실,대구광역시 종합복지관 평리별관 4층,"대구광역시 달서구 성당로 187 (성당동, 대구광역시 종합복지회관)",,N,0,2,0,0,0,0,0,0,0,대구광역시 종합복지관,,09:00~18:00,,35.84972419,128.5698418,지방자치단체,공공용시설,수세식,없음,N,없음,,2020-08-31
356,개방화장실,청각언어 장애인복지관 3층,대구광역시 달서구 달구벌대로291길 100 (용산동),,N,1,2,0,0,0,0,3,0,0,대구청각언어장애인복지관,,09:00~18:00,,35.85354733,128.5254588,지방자치단체,공공용시설,수세식,,N,없음,,2020-08-31
357,개방화장실,청각언어 장애인복지관 2층,대구광역시 달서구 달구벌대로291길 100 (용산동),,N,1,2,0,0,0,0,3,0,0,대구청각언어장애인복지관,,09:00~18:00,,35.85354733,128.5254588,지방자치단체,공공용시설,수세식,,N,여자화장실,,2020-08-31
358,개방화장실,청각언어 장애인복지관 1층,대구광역시 달서구 달구벌대로291길 100 (용산동),,N,1,1,0,0,0,0,1,1,0,대구청각언어장애인복지관,,09:00~18:00,,35.85354733,128.5254588,지방자치단체,공공용시설,수세식,,N,없음,,2020-08-31
359,개방화장실,달구벌종합 스포츠센터 2층,대구광역시 달서구 달구벌대로291길 100 (용산동),,N,1,1,0,0,0,0,1,1,0,대구광역시 달구벌종합 스포츠센터,,09:00~18:00,,35.85354733,128.5254588,지방자치단체,공공용시설,수세식,여자화장실,N,없음,,2020-08-31
360,개방화장실,달구벌종합 스포츠센터 1층,대구광역시 달서구 달구벌대로291길 100 (용산동),,N,1,1,0,0,0,0,2,1,0,대구광역시 달구벌종합 스포츠센터,,09:00~18:00,,35.85354733,128.5254588,지방자치단체,공공용시설,수세식,여자화장실,N,없음,,2020-08-31
361,개방화장실,달구벌종합복지관 4층,대구광역시 달서구 달구벌대로291길 100 (용산동),,N,2,3,0,0,0,0,1,1,1,달구벌종합복지관 시설관리팀,,09:00~20:00,,35.85354733,128.5254588,지방자치단체,공공용시설,수세식,,N,없음,,2020-08-31
362,개방화장실,달구벌종합복지관 3층,대구광역시 달서구 달구벌대로291길 100 (용산동),,N,2,3,0,0,0,0,1,1,1,달구벌종합복지관 시설관리팀,,09:00~20:00,,35.85354733,128.5254588,지방자치단체,공공용시설,수세식,,N,없음,,2020-08-31
363,개방화장실,달구벌종합복지관 2층,대구광역시 달서구 달구벌대로291길 100 (용산동),,N,2,3,0,0,0,0,1,1,1,달구벌종합복지관 시설관리팀,,09:00~20:00,,35.85354733,128.5254588,지방자치단체,공공용시설,수세식,,N,없음,,2020-08-31
364,개방화장실,달구벌종합복지관 1층,대구광역시 달서구 달구벌대로291길 100 (용산동),,N,4,4,0,0,0,0,3,1,1,달구벌종합복지관 시설관리팀,,09:00~20:00,,35.85354733,128.5254588,지방자치단체,공공용시설,수세식,,N,없음,,2020-08-31
365,개방화장실,달구벌종합복지관 지하1층,대구광역시 달서구 달구벌대로291길 100 (용산동),,N,2,3,0,0,0,0,2,1,1,달구벌종합복지관 시설관리팀,,09:00~20:00,,35.85354733,128.5254588,지방자치단체,공공용시설,수세식,,N,없음,,2020-08-31
366,개방화장실,달구벌종합복지관 5층,대구광역시 달서구 달구벌대로291길 100 (용산동),,N,2,3,0,0,0,0,1,1,1,달구벌종합복지관 시설관리팀,,09:00~20:00,,35.85354733,128.5254588,지방자치단체,공공용시설,수세식,,N,여자화장실,,2020-08-31
367,개방화장실,제일빌딩,대구광역시 달서구 달구벌대로259길 33 (이곡동),,N,2,2,0,0,0,0,2,0,0,달서구청 환경보호과,,09:00~18:00,,35.85449966,128.509422,민간,기타,수세식,없음,N,없음,,2020-08-31
368,개방화장실,성서경찰서 별관 3층,"대구광역시 달서구 달구벌대로259길 15 (이곡동, 대구성서경찰서)",,N,4,10,0,0,0,0,0,0,0,성서경찰서,,00:00~23:50,,35.85321735,128.5087733,국가,공공용시설,수세식,없음,N,없음,,2020-08-31
369,개방화장실,성서경찰서 별관 2층,"대구광역시 달서구 달구벌대로259길 15 (이곡동, 대구성서경찰서)",,N,4,10,0,0,0,0,0,0,0,성서경찰서,,00:00~23:50,,35.85321735,128.5087733,국가,공공용시설,수세식,없음,N,없음,,2020-08-31
370,개방화장실,성서경찰서 별관 1층,"대구광역시 달서구 달구벌대로259길 15 (이곡동, 대구성서경찰서)",,N,4,10,0,0,0,0,0,0,0,성서경찰서,,00:00~23:50,,35.85321735,128.5087733,국가,공공용시설,수세식,없음,N,없음,,2020-08-31
371,개방화장실,성서경찰서 민원동 2층,"대구광역시 달서구 달구벌대로259길 15 (이곡동, 대구성서경찰서)",,N,3,3,0,0,0,0,3,0,0,성서경찰서,,00:00~23:50,,35.85321735,128.5087733,국가,공공용시설,수세식,없음,N,없음,,2020-08-31
372,개방화장실,성서경찰서 민원동 1층,"대구광역시 달서구 달구벌대로259길 15 (이곡동, 대구성서경찰서)",,N,3,3,0,0,0,0,3,1,0,성서경찰서,,00:00~23:50,,35.85321735,128.5087733,국가,공공용시설,수세식,없음,N,없음,,2020-08-31
373,개방화장실,성서경찰서 본관 4층,"대구광역시 달서구 달구벌대로259길 15 (이곡동, 대구성서경찰서)",,N,5,5,0,0,0,0,5,0,0,성서경찰서,,00:00~23:50,,35.85321735,128.5087733,국가,공공용시설,수세식,없음,N,없음,,2020-08-31
374,개방화장실,성서경찰서 본관 3층,"대구광역시 달서구 달구벌대로259길 15 (이곡동, 대구성서경찰서)",,N,5,5,0,0,0,0,5,0,0,성서경찰서,,00:00~23:50,,35.85321735,128.5087733,국가,공공용시설,수세식,없음,N,없음,,2020-08-31
375,개방화장실,성서경찰서 본관 2층,"대구광역시 달서구 달구벌대로259길 15 (이곡동, 대구성서경찰서)",,N,5,5,0,0,0,0,5,0,0,성서경찰서,,00:00~23:50,,35.85321735,128.5087733,국가,공공용시설,수세식,없음,N,없음,,2020-08-31
376,개방화장실,성서경찰서 본관 1층,"대구광역시 달서구 달구벌대로259길 15 (이곡동, 대구성서경찰서)",,N,5,5,0,0,0,0,5,1,0,성서경찰서,,00:00~23:50,,35.85321735,128.5087733,국가,공공용시설,수세식,없음,N,없음,,2020-08-31
377,공중화장실,사령봉공원,대구광역시 달서구 달구벌대로245길 17-12,,Y,0,0,0,0,0,0,0,0,0,이곡2동 행정복지센터,,09:00~18:00,,35.85292917,128.5032953,지방자치단체,공공용시설,수세식,여자화장실,N,없음,,2020-08-31
378,공중화장실,반고개역,"대구광역시 달서구 달구벌대로 지하 1900 (두류동, 대구지하철2호선 반고개역)",,N,4,8,0,0,0,0,12,1,1,대구도시철도공사 반고개역,,05:20~00:00,,35.86220025,128.5725544,공공기관,교통시설,수세식,여자화장실,Y,없음,,2020-08-31
379,공중화장실,두류역,"대구광역시 달서구 달구벌대로 지하 1760 (두류동, 대구지하철2호선 두류역)",,N,4,5,0,0,0,0,9,1,1,대구도시철도공사 두류역,,05:20~00:00,,35.85754538,128.5566061,공공기관,교통시설,수세식,여자화장실,Y,여자화장실,,2020-08-31
380,공중화장실,감삼역,"대구광역시 달서구 달구벌대로 지하 1665 (감삼동, 대구지하철2호선 감삼역)",,N,4,5,0,0,0,0,8,0,1,대구도시철도공사 감삼역,,05:20~00:00,,35.85423347,128.5479028,공공기관,교통시설,수세식,여자화장실,Y,여자화장실,,2020-08-31
381,공중화장실,죽전역,"대구광역시 달서구 달구벌대로 지하 1560 (죽전동, 대구지하철2호선 죽전역)",,N,3,4,0,0,0,0,8,1,1,대구도시철도공사 죽전역,,05:20~00:00,,35.85054197,128.5383916,공공기관,교통시설,수세식,여자화장실,Y,여자화장실,,2020-08-31
382,개방화장실,성서농협은행,대구광역시 달서구 달구벌대로 1288 (이곡동),,N,3,3,0,0,0,0,3,1,0,달서구청 환경보호과,,09:00~18:00,,35.85122621,128.5080228,민간,기타,수세식,없음,N,없음,,2020-08-31
383,공중화장실,성서주유소,대구광역시 달서구 달구벌대로 1270 (이곡동),,N,0,2,0,0,0,0,0,0,0,달서구청 환경보호과,,09:00~18:00,,35.85146432,128.505995,민간,주유소·충전소,수세식,없음,N,없음,,2020-08-31
384,개방화장실,계명LPG충전소,대구광역시 달서구 달구벌대로 1250 (이곡동),,N,1,1,0,0,0,0,1,0,0,달서구청 환경보호과,,09:00~18:00,,35.85163271,128.5040633,민간,주유소·충전소,수세식,없음,N,없음,,2020-08-31
385,개방화장실,대구광역시 종합복지관 평리별관 3층,"대구광역시 달서구 성당로 187 (성당동, 대구광역시 종합복지회관)",,N,0,2,0,0,0,0,0,1,0,대구광역시 종합복지관,,09:00~18:00,,35.84972419,128.5698418,지방자치단체,공공용시설,수세식,없음,N,없음,,2020-08-31
386,개방화장실,대구광역시 종합복지관 평리별관 2층,"대구광역시 달서구 성당로 187 (성당동, 대구광역시 종합복지회관)",,N,0,2,0,0,0,0,1,1,0,대구광역시 종합복지관,,09:00~18:00,,35.84972419,128.5698418,지방자치단체,공공용시설,수세식,없음,N,없음,,2020-08-31
387,개방화장실,대구광역시 종합복지관 평리별관 1층,"대구광역시 달서구 성당로 187 (성당동, 대구광역시 종합복지회관)",,N,0,2,0,0,0,0,0,1,0,대구광역시 종합복지관,,09:00~18:00,,35.84972419,128.5698418,지방자치단체,공공용시설,수세식,없음,N,없음,,2020-08-31
388,개방화장실,대구광역시 종합복지관 평리별관 지하1층,"대구광역시 달서구 성당로 187 (성당동, 대구광역시 종합복지회관)",,N,0,3,0,0,0,0,1,0,0,대구광역시 종합복지관,,09:00~18:00,,35.84972419,128.5698418,지방자치단체,공공용시설,수세식,없음,N,없음,,2020-08-31
389,개방화장실,대구광역시 종합복지관 제2별관 2층,"대구광역시 달서구 성당로 187 (성당동, 대구광역시 종합복지회관)",,Y,0,0,0,0,0,0,0,0,0,대구광역시 종합복지관,,09:00~18:00,,35.84972419,128.5698418,지방자치단체,공공용시설,수세식,없음,N,없음,,2020-08-31
390,개방화장실,대구광역시 종합복지관 제2별관 1층,"대구광역시 달서구 성당로 187 (성당동, 대구광역시 종합복지회관)",,Y,0,0,0,0,0,0,0,0,0,대구광역시 종합복지관,,09:00~18:00,,35.84972419,128.5698418,지방자치단체,공공용시설,수세식,없음,N,없음,,2020-08-31
391,개방화장실,대구광역시 종합복지관 제1별관 3층,"대구광역시 달서구 성당로 187 (성당동, 대구광역시 종합복지회관)",,N,3,5,0,0,0,0,5,1,0,대구광역시 종합복지관,,09:00~18:00,,35.84972419,128.5698418,지방자치단체,공공용시설,수세식,없음,N,없음,,2020-08-31
392,개방화장실,대구광역시 종합복지관 제1별관 2층,"대구광역시 달서구 성당로 187 (성당동, 대구광역시 종합복지회관)",,N,1,5,0,0,0,0,5,1,0,대구광역시 종합복지관,,09:00~18:00,,35.84972419,128.5698418,지방자치단체,공공용시설,수세식,없음,N,없음,,2020-08-31
393,개방화장실,대구광역시 종합복지관 제1별관 1층,"대구광역시 달서구 성당로 187 (성당동, 대구광역시 종합복지회관)",,N,1,5,0,0,0,0,5,1,0,대구광역시 종합복지관,,09:00~18:00,,35.84972419,128.5698418,지방자치단체,공공용시설,수세식,없음,N,없음,,2020-08-31
394,개방화장실,대구광역시 종합복지관 본관 3층,"대구광역시 달서구 성당로 187 (성당동, 대구광역시 종합복지회관)",,N,0,5,0,0,0,1,0,0,0,대구광역시 종합복지관,,09:00~18:00,,35.84972419,128.5698418,지방자치단체,공공용시설,수세식,없음,N,없음,,2020-08-31
395,개방화장실,대구광역시 종합복지관 본관 2층,"대구광역시 달서구 성당로 187 (성당동, 대구광역시 종합복지회관)",,N,2,5,0,0,0,1,4,1,0,대구광역시 종합복지관,,09:00~18:00,,35.84972419,128.5698418,지방자치단체,공공용시설,수세식,없음,N,없음,,2020-08-31
396,개방화장실,대구광역시 종합복지관 본관 1층,"대구광역시 달서구 성당로 187 (성당동, 대구광역시 종합복지회관)",,N,2,6,0,0,0,1,4,1,0,대구광역시 종합복지관,,09:00~18:00,,35.84972419,128.5698418,지방자치단체,공공용시설,수세식,없음,N,없음,,2020-08-31
397,개방화장실,대구광역시 종합복지관 본관 지하1층,"대구광역시 달서구 성당로 187 (성당동, 대구광역시 종합복지회관)",,N,0,3,0,0,0,0,0,0,0,대구광역시 종합복지관,,09:00~18:00,,35.84972419,128.5698418,지방자치단체,공공용시설,수세식,없음,N,없음,,2020-08-31
398,공중화장실,대동주유소,대구광역시 달서구 성당로 117 (성당동),,Y,0,0,0,0,0,0,0,0,0,달서구청 환경보호과,,09:00~18:00,,35.84615411,128.5649856,민간,주유소·충전소,수세식,없음,N,없음,,2020-08-31
399,공중화장실,계골산공원,대구광역시 달서구 선원로15길 71,,Y,0,0,0,0,0,0,0,0,0,신당동 행정복지센터,,09:00~18:00,,35.86151231,128.4989273,지방자치단체,공공용시설,수세식,여자화장실,N,없음,,2020-08-31
400,개방화장실,신당지구대,"대구광역시 달서구 선원로 62 (신당동, 신당지구대)",,N,1,1,0,0,0,0,1,1,0,신당지구대,,00:00~23:50,,35.85896827,128.4991495,국가,공공용시설,수세식,없음,N,없음,,2020-08-31
401,개방화장실,신당동 행정복지센터 장애인,"대구광역시 달서구 선원로 60 (신당동, 신당동행정복지센터)",,N,1,0,0,0,0,0,1,1,0,신당동 행정복지센터,,08:00~18:00,,35.85896865,128.4988307,지방자치단체,공공용시설,수세식,,N,없음,,2020-08-31
402,개방화장실,신당동 행정복지센터 2층,"대구광역시 달서구 선원로 60 (신당동, 신당동행정복지센터)",,Y,0,0,0,0,0,0,0,0,0,신당동 행정복지센터,,08:00~18:00,,35.85896865,128.4988307,지방자치단체,공공용시설,수세식,없음,N,없음,,2020-08-31
403,개방화장실,신당동 행정복지센터 1층,"대구광역시 달서구 선원로 60 (신당동, 신당동행정복지센터)",,N,1,3,0,0,0,0,1,0,0,신당동 행정복지센터,,08:00~18:00,,35.85896865,128.4988307,지방자치단체,공공용시설,수세식,,N,없음,,2020-08-31
404,개방화장실,대구신당동우체국,"대구광역시 달서구 선원로 58 (신당동, 신당동우체국)",,Y,0,0,0,0,0,0,0,0,0,대구신당동우체국,,09:00~18:00,,35.85895012,128.4985824,국가,공공용시설,수세식,없음,N,없음,,2020-08-31
405,개방화장실,용산2동행정복지센터,"대구광역시 달서구 선원로 278 (용산동, 용산2동행정복지센터)",,N,3,4,0,0,0,0,4,1,0,달서구청 용산2동,,09:00~18:00,,35.85843043,128.522993,지방자치단체,공공용시설,수세식,,N,없음,,2020-08-31
406,개방화장실,용산파출소,"대구광역시 달서구 선원로 276 (용산동, 용산파출소)",,Y,0,0,0,0,0,0,0,1,0,용산파출소,,00:00~23:50,,35.85855903,128.5228006,국가,공공용시설,수세식,없음,N,없음,,2020-08-31
407,개방화장실,성서노인종합복지관,"대구광역시 달서구 선원로 203 (용산동, 성서노인종합복지관)",,N,8,12,0,0,0,0,20,1,0,성서노인종합복지관,,09:00~18:00,,35.85950932,128.5149236,지방자치단체,공공용시설,수세식,없음,N,없음,,2020-08-31
408,공중화장실,성서국민체육센터,대구광역시 달서구 선원로 133 (이곡동),,N,2,3,0,0,0,0,4,1,0,대구시체육회시설관리사업소,,06:00~22:00,,35.86156265,128.5058539,지방자치단체,관광·체육시설,수세식,없음,N,없음,,2020-08-31
409,공중화장실,성서운동장,대구광역시 달서구 선원로 133 (이곡동),,N,3,5,0,0,0,0,5,1,0,대구시체육회시설관리사업소,,09:00~18:00,,35.86156265,128.5058539,지방자치단체,관광·체육시설,수세식,여자화장실,N,없음,,2020-08-31
410,공중화장실,샛별공원,대구광역시 달서구 선원로 100,,N,1,2,0,0,0,0,1,0,0,이곡2동 행정복지센터,,09:00~18:00,,35.85760472,128.5038441,지방자치단체,공공용시설,수세식,여자화장실,N,없음,,2020-08-31
411,공중화장실,와룡위공원,대구광역시 달서구 선원남로 5,,N,2,4,0,0,0,0,4,1,0,달서구청 공원녹지과,,09:00~18:00,,35.85778812,128.5007081,지방자치단체,공공용시설,수세식,여자화장실,N,없음,,2020-08-31
412,공중화장실,와룡아래공원,대구광역시 달서구 선원남로 22,,N,3,4,0,0,0,0,3,0,0,달서구청 공원녹지과,,09:00~18:00,,35.85707449,128.5018548,지방자치단체,공공용시설,수세식,여자화장실,N,없음,,2020-08-31
413,개방화장실,성서도서관,"대구광역시 달서구 선원남로 129 (이곡동, 성서도서관)",,N,5,6,0,0,0,0,11,1,1,달서구청 도서관과,,09:00~20:00,,35.85741363,128.514463,지방자치단체,공공용시설,수세식,없음,Y,여자화장실,,2020-08-31
414,공중화장실,동마제1주유소,대구광역시 달서구 달구벌대로 1196 (신당동),,N,1,2,0,0,0,0,2,0,0,달서구청 환경보호과,,09:00~18:00,,35.8513907,128.4983339,민간,주유소·충전소,수세식,없음,N,없음,,2020-08-31
415,공중화장실,삼성제일주유소,대구광역시 달서구 달구벌대로 1154 (신당동),,Y,0,0,0,0,0,0,0,0,0,달서구청 환경보호과,,09:00~18:00,,35.85107843,128.4935949,민간,주유소·충전소,수세식,없음,N,없음,,2020-08-31
416,개방화장실,성서병원,대구광역시 달서구 달구벌대로 1152 (신당동),,N,1,2,0,0,0,0,1,0,0,달서구청 환경보호과,,09:00~18:00,,35.85105422,128.4932225,민간,기타,수세식,없음,N,없음,,2020-08-31
417,공중화장실,계명주유소,대구광역시 달서구 달구벌대로 1150 (신당동),,N,1,2,0,0,0,0,1,0,0,달서구청 환경보호과,,09:00~18:00,,35.85106594,128.4928597,민간,주유소·충전소,수세식,없음,N,없음,,2020-08-31
418,개방화장실,성당파출소,"대구광역시 달서구 구마로39길 83-16 (성당동, 성당파출소)",,N,1,2,0,0,0,0,1,1,0,성당파출소,,00:00~23:50,,35.84122057,128.5470833,국가,공공용시설,수세식,없음,Y,없음,,2020-08-31
419,개방화장실,본동행정복지센터,"대구광역시 달서구 구마로26길 62 (본동, 본동행정복지센터)",,N,1,0,0,0,0,0,1,1,0,본동 행정복지센터,,09:00~18:00,,35.83444223,128.5410421,지방자치단체,공공용시설,수세식,,N,없음,,2020-08-31
420,공중화장실,한마음공원,대구광역시 달서구 구마로12길 93,,N,1,1,0,0,0,0,2,0,0,본동 행정복지센터,,09:00~18:00,,35.83298462,128.534104,지방자치단체,공공용시설,수세식,여자화장실,N,없음,,2020-08-31
421,공중화장실,애화공원,대구광역시 달서구 구마로12길 93,,N,1,2,0,0,0,0,2,0,0,본동 행정복지센터,,09:00~18:00,,35.83298462,128.534104,지방자치단체,공공용시설,수세식,여자화장실,N,없음,,2020-08-31
422,공중화장실,해원주유소,대구광역시 달서구 구마로 79 (본리동),,Y,1,3,0,0,0,0,1,0,0,달서구청 환경보호과,,09:00~18:00,,35.8377406,128.5362452,민간,주유소·충전소,수세식,없음,N,없음,,2020-08-31
423,공중화장실,구마고속주유소,대구광역시 달서구 구마로 67 (본리동),,N,1,2,0,0,0,0,1,0,0,달서구청 환경보호과,,09:00~18:00,,35.83770205,128.5350315,민간,주유소·충전소,수세식,없음,N,없음,,2020-08-31
424,공중화장실,아토주유소,대구광역시 달서구 구마로 42,,N,2,1,0,0,0,0,2,0,0,달서구청 환경보호과,,09:00~18:00,,35.83691384,128.5323957,민간,주유소·충전소,수세식,없음,N,없음,,2020-08-31
425,공중화장실,동서주유소,대구광역시 달서구 구마로 35 (본리동),,N,1,2,0,0,0,0,1,0,0,달서구청 환경보호과,,09:00~18:00,,35.83755353,128.5314164,민간,주유소·충전소,수세식,없음,N,없음,,2020-08-31
426,개방화장실,광영메디컬빌딩,대구광역시 달서구 구마로 258 (송현동),,N,1,1,0,0,0,0,1,0,0,달서구청 환경보호과,,09:00~18:00,,35.83703757,128.5561433,민간,기타,수세식,없음,N,없음,,2020-08-31
427,공중화장실,그린주유소,대구광역시 달서구 구마로 230 (송현동),,N,0,0,0,0,0,0,0,0,0,달서구청 환경보호과,,09:00~18:00,,35.83675092,128.552946,민간,주유소·충전소,수세식,없음,N,없음,,2020-08-31
428,개방화장실,세강병원,"대구광역시 달서구 구마로 220 (송현동, 세강병원)",,N,2,3,0,0,0,0,3,0,0,달서구청 환경보호과,,09:00~18:00,,35.83664451,128.5516956,민간,기타,수세식,없음,N,없음,,2020-08-31
429,공중화장실,SK송현주유소,대구광역시 달서구 구마로 219 (성당동),,Y,0,0,0,0,0,0,0,0,0,달서구청 환경보호과,,09:00~18:00,,35.83746307,128.5516717,민간,주유소·충전소,수세식,없음,N,없음,,2020-08-31
430,공중화장실,달서송림시장,"대구광역시 달서구 구마로 176 (본동, 송림시장)",,Y,0,0,0,0,0,0,0,0,0,달서구청 경제지원과,,09:00~18:00,,35.83685905,128.5470782,민간,상업시설,수세식,없음,N,없음,,2020-08-31
431,개방화장실,보광병원,"대구광역시 달서구 구마로 128 (본동, 보광병원)",,N,2,3,0,0,0,0,2,1,0,달서구청 환경보호과,,09:00~18:00,,35.83675565,128.5416623,민간,기타,수세식,없음,N,없음,,2020-08-31
432,공중화장실,본리동주유소,대구광역시 달서구 구마로 110 (본동),,N,1,3,0,0,0,0,1,0,0,달서구청 환경보호과,,09:00~18:00,,35.83704916,128.5395741,민간,주유소·충전소,수세식,없음,N,없음,,2020-08-31
433,개방화장실,대구광역시문화예술회관 공연동2층(우측),"대구광역시 달서구 공원순환로 201 (성당동, 대구광역시문화예술회관)",,N,3,6,0,0,0,0,4,0,0,문화예술회관,,09:00~22:00,,35.84476571,128.5581006,지방자치단체,공공용시설,수세식,없음,N,없음,,2020-08-31
434,개방화장실,대구광역시문화예술회관 공연동2층(좌측),"대구광역시 달서구 공원순환로 201 (성당동, 대구광역시문화예술회관)",,N,3,4,0,0,0,0,4,0,0,문화예술회관,,09:00~22:00,,35.84476571,128.5581006,지방자치단체,공공용시설,수세식,없음,N,없음,,2020-08-31
435,개방화장실,대구광역시문화예술회관 공연동1층(우측),"대구광역시 달서구 공원순환로 201 (성당동, 대구광역시문화예술회관)",,N,4,4,0,0,0,0,8,1,0,문화예술회관,,09:00~22:00,,35.84476571,128.5581006,지방자치단체,공공용시설,수세식,없음,N,여자화장실,,2020-08-31
436,개방화장실,대구광역시문화예술회관 공연동1층(좌측),"대구광역시 달서구 공원순환로 201 (성당동, 대구광역시문화예술회관)",,N,4,5,0,0,0,0,8,1,0,문화예술회관,,09:00~22:00,,35.84476571,128.5581006,지방자치단체,공공용시설,수세식,없음,N,여자화장실,,2020-08-31
437,개방화장실,대구광역시문화예술회관 미술관2층(중앙),"대구광역시 달서구 공원순환로 201 (성당동, 대구광역시문화예술회관)",,N,2,4,0,0,0,0,5,1,0,문화예술회관,,09:00~22:00,,35.84476571,128.5581006,지방자치단체,공공용시설,수세식,없음,N,여자화장실,,2020-08-31
438,개방화장실,대구광역시문화예술회관 미술관2층(우측),"대구광역시 달서구 공원순환로 201 (성당동, 대구광역시문화예술회관)",,N,3,2,0,0,0,0,4,1,0,문화예술회관,,09:00~22:00,,35.84476571,128.5581006,지방자치단체,공공용시설,수세식,없음,N,없음,,2020-08-31
439,개방화장실,대구광역시문화예술회관 미술관1층(좌측),"대구광역시 달서구 공원순환로 201 (성당동, 대구광역시문화예술회관)",,N,1,3,0,0,0,0,4,1,0,문화예술회관,,09:00~22:00,,35.84476571,128.5581006,지방자치단체,공공용시설,수세식,없음,N,없음,,2020-08-31
440,개방화장실,대구광역시문화예술회관 미술관1층(중앙),"대구광역시 달서구 공원순환로 201 (성당동, 대구광역시문화예술회관)",,N,3,4,0,0,0,0,6,1,0,문화예술회관,,09:00~22:00,,35.84476571,128.5581006,지방자치단체,공공용시설,수세식,없음,N,여자화장실,,2020-08-31
441,개방화장실,대구광역시문화예술회관 미술관1층(우측),"대구광역시 달서구 공원순환로 201 (성당동, 대구광역시문화예술회관)",,N,3,2,0,0,0,0,4,1,0,문화예술회관,,09:00~22:00,,35.84476571,128.5581006,지방자치단체,공공용시설,수세식,없음,N,여자화장실,,2020-08-31
442,공중화장실,갈뫼공원,대구광역시 달서구 계대동문로4길 59,,N,1,2,0,0,0,1,1,0,0,신당동 행정복지센터,,09:00~18:00,,35.8527762,128.4941758,지방자치단체,공공용시설,수세식,없음,N,없음,,2020-08-31
